,accuracy,formatted_address,google_place_id,input_string,latitude,longitude,number_of_results,postcode,status,type
0,APPROXIMATE,"Mostar 88000, Bosnia and Herzegovina",ChIJqUBjO6RDSxMRWnzj1LIyTwE,MOSDTAR,43.34377480000001,17.8077578,1,88000,OK,"locality,political"
1,APPROXIMATE,"Mose, ND 58416, USA",ChIJ2yzL-VIwxVIRqvE5xuULQYQ,MOSE,47.57860789999999,-98.45482129999999,1,58416,OK,"locality,political"
2,,,,MOSECHALAG,,,0,,ZERO_RESULTS,
3,,,,MOSEVICA,,,0,,ZERO_RESULTS,
4,,,,MOSHATON,,,0,,ZERO_RESULTS,
5,,,,MOSINCI,,,0,,ZERO_RESULTS,
6,APPROXIMATE,"Moscow, Russia",ChIJybDUc_xKtUYRTM9XV8zWRD0,MOSKA,55.755826,37.6172999,1,,OK,"locality,political"
7,,,,MOSLAV,,,0,,ZERO_RESULTS,
8,,,,MOSLAVA,,,0,,ZERO_RESULTS,
9,APPROXIMATE,"31530, Moslavina, Croatia",ChIJ1xMIBlVbXUcRVuidwXNbXWw,MOSLAVINA,45.783333,17.9833329,2,31530,OK,"locality,political"
10,APPROXIMATE,"Mosonmagyaróvár, Moson County, 9200 Hungary",ChIJaTGB0dV3bEcRgbu7mRQe49g,MOSON,47.8571039,17.260456,1,9200,OK,"political,sublocality,sublocality_level_1"
11,APPROXIMATE,"Mosul, Iraq",ChIJuYga22SUB0ARMAkP3U7XRZc,MOSSOUL,36.3566484,43.1640004,1,,OK,"locality,political"
12,APPROXIMATE,"Mosul, Iraq",ChIJuYga22SUB0ARMAkP3U7XRZc,MOSSUL,36.3566484,43.1640004,1,,OK,"locality,political"
13,ROOFTOP,"500 S Franklin St, Syracuse, NY 13202, USA",ChIJZ41sr8Dz2YkR8-pQ147C1Lg,MOST,43.04709829999999,-76.1555908,2,13202,OK,"electronics_store,establishment,home_goods_store,movie_theater,museum,point_of_interest,store"
14,APPROXIMATE,"Moštanica, Croatia",ChIJ77V3VaTpZkcRQpk2U1GtACY,MOSTANICE,45.3635702,16.3492091,1,,OK,"locality,political"
15,APPROXIMATE,"Mostar 88000, Bosnia and Herzegovina",ChIJqUBjO6RDSxMRWnzj1LIyTwE,MOSTAR,43.34377480000001,17.8077578,1,88000,OK,"locality,political"
16,APPROXIMATE,"Mostar, Bosnia and Herzegovina",ChIJSxsfo51GSxMRGBN7f85rhOU,MOSTAR (CROACIA),43.4068618,17.811,1,,OK,"administrative_area_level_3,political"
17,,,,MOSTARC,,,0,,ZERO_RESULTS,
18,APPROXIMATE,"Mostar 88000, Bosnia and Herzegovina",ChIJqUBjO6RDSxMRWnzj1LIyTwE,MOSTARE,43.34377480000001,17.8077578,1,88000,OK,"locality,political"
19,,,,MOSTAZ,,,0,,ZERO_RESULTS,
20,APPROXIMATE,"Most, Czechia",ChIJBe763psfCkcRUHwVZg-vAAQ,MOSTE,50.5015549,13.6329122,2,,OK,"locality,political"
21,,,,MOSTEH,,,0,,ZERO_RESULTS,
22,APPROXIMATE,"Moster, Bømlo, Norway",ChIJ__nZvTiAO0YRYqphaiGzbtA,MOSTER,59.70247729999999,5.3458565,2,,OK,"establishment,natural_feature"
23,ROOFTOP,"4435 Sunset Blvd, Steubenville, OH 43952, USA",ChIJpdLYPcIxNIgR74rNKu0t9z4,MOSTI,40.37293349999999,-80.68265749999999,1,43952,OK,"establishment,funeral_home,point_of_interest"
24,APPROXIMATE,"9220 Mostje, Slovenia",ChIJDYdu1bA1b0cRy4f1AuoAy7M,MOSTJE,46.6019426,16.428125,1,9220,OK,"locality,political"
25,APPROXIMATE,"Mosta, Malta",ChIJudctidNPDhMRhn5kw0dH6cc,MOSTOV,35.9141504,14.4228427,1,,OK,"locality,political"
26,APPROXIMATE,"Mostar 88000, Bosnia and Herzegovina",ChIJqUBjO6RDSxMRWnzj1LIyTwE,MOSTQAR,43.34377480000001,17.8077578,1,88000,OK,"locality,political"
27,APPROXIMATE,"Exhibition, Valencia, Spain",ChIJEWn6MKVIYA0R-JVIlJXqixw,MOSTRAVA,39.47681619999999,-0.3642437,2,,OK,"neighborhood,political"
28,,,,MOSUCHE,,,0,,ZERO_RESULTS,
29,APPROXIMATE,"Mosul, Iraq",ChIJuYga22SUB0ARMAkP3U7XRZc,MOSUL,36.3566484,43.1640004,1,,OK,"locality,political"
30,APPROXIMATE,"Mosum, Maharashtra, India",ChIJNUYjTDrIwTsRBwy4mynTC04,MOSUM,16.79877,73.8242621,1,,OK,"locality,political"
31,,,,MOTHKULEE,,,0,,ZERO_RESULTS,
32,,,,MOTIEZ,,,0,,ZERO_RESULTS,
33,,,,MOTKE,,,0,,ZERO_RESULTS,
34,APPROXIMATE,"18-421 Motyka, Poland",ChIJ5cdKbhMtHkcRuciZunGeGn4,MOTLIKA,53.2491224,22.1922942,1,18-421,OK,"locality,political"
35,,,,MOTOLOVICE,,,0,,ZERO_RESULTS,
36,APPROXIMATE,"Motom, Equatorial Guinea",ChIJc6piwwpphxARxfitqi281iI,MOTOM,1.533333,10.866667,1,,OK,"locality,political"
37,APPROXIMATE,"9240 Mota, Slovenia",ChIJZ_LdnyZGb0cRfYHPhtyT90M,MOTOVA,46.547851,16.2262157,2,9240,OK,"locality,political"
38,APPROXIMATE,"9264 Motovilci, Slovenia",ChIJrYCtBUUXb0cR-jqW7exwbZg,MOTOVILCI,46.7773495,16.060704,1,9264,OK,"locality,political"
39,,,,MOTSKI,,,0,,ZERO_RESULTS,
40,,,,MOUADDAME,,,0,,ZERO_RESULTS,
41,,,,MOUALAKA,,,0,,ZERO_RESULTS,
42,GEOMETRIC_CENTER,"Maura, West Bengal 712513, India",ChIJ0fywBbOK-DkRXvz8-FJ2FHo,MOUARA,22.9883314,88.180842,1,712513,OK,"establishment,point_of_interest,school"
43,GEOMETRIC_CENTER,"Mouart Ln, Hopewell Junction, NY 12533, USA",ChIJERvvqOhH3YkRjgKR-RhNFns,MOUARET,41.56745799999999,-73.822678,1,12533,OK,route
44,,,,MOUARRA,,,0,,ZERO_RESULTS,
45,APPROXIMATE,"Mouché, 82000 Montauban, France",ChIJu9fWPWURrBIRB24cPb7O0uQ,MOUCHE,44.003158,1.415567,2,82000,OK,"colloquial_area,political"
46,GEOMETRIC_CENTER,"Mound St, Lebanon, OH 45036, USA",ChIJhTSUdxr0QIgRUazhhz6VM5o,MOUD LIBANO,39.4348929,-84.19881819999999,3,45036,OK,route
47,,,,MOUESTOR,,,0,,ZERO_RESULTS,
48,,,,MOUHAIRE,,,0,,ZERO_RESULTS,
49,,,,MOUHARDE,,,0,,ZERO_RESULTS,
50,GEOMETRIC_CENTER,"Jl. puskesmas, Kebagusan, Ps. Minggu, Kota Jakarta Selatan, Daerah Khusus Ibukota Jakarta 12520, Indonesia",ChIJD-rrnwfyaS4RPBD7IQmoFAw,MOUJAIRE,-6.298342799999999,106.8273117,1,12520,OK,route
51,,,,MOUKAABRA,,,0,,ZERO_RESULTS,
52,,,,MOUKHARAH,,,0,,ZERO_RESULTS,
53,APPROXIMATE,"Mount Lebanon, Lebanon",ChIJ1zmyh1sQIhUR-4tRdYx3f1I,MOUNT LEBONAN,34.3,36.116667,1,,OK,"establishment,natural_feature"
54,APPROXIMATE,"Mount Lebanon, Lebanon",ChIJ1zmyh1sQIhUR-4tRdYx3f1I,MOUNT LIBANON,34.3,36.116667,1,,OK,"establishment,natural_feature"
55,GEOMETRIC_CENTER,"Libau Ave, Bell Park VIC 3215, Australia",ChIJ86z6OjER1GoRqWCd_CjQ6Wc,MOUNT LIBAU,-38.1142573,144.3394794,4,3215,OK,route
56,,,,MOURAKEIB,,,0,,ZERO_RESULTS,
57,,,,MOUROL,,,0,,ZERO_RESULTS,
58,,,,MOUSAIR EL SHOUF,,,0,,ZERO_RESULTS,
59,,,,MOUZISTE,,,0,,ZERO_RESULTS,
60,,,,MOVE SOVE,,,0,,ZERO_RESULTS,
61,APPROXIMATE,"36628 Mozorín, Pontevedra, Spain",ChIJ5d93D1oTLw0RrZ__bjUBGYw,MOZORIN,42.5401851,-8.741577699999999,1,36628,OK,"locality,political"
62,ROOFTOP,"Carretera de Jandía, km11, 35610 Antigua, Las Palmas, Spain",ChIJG0rHrwPBRwwRtFwJKcDEKnU,MOZRAT,28.3863753,-13.8645053,1,35610,OK,"cafe,establishment,food,point_of_interest"
63,APPROXIMATE,"Mosul, Iraq",ChIJuYga22SUB0ARMAkP3U7XRZc,MOZUL,36.3566484,43.1640004,1,,OK,"locality,political"
64,APPROXIMATE,"Mračaj, Bosnia and Herzegovina",ChIJISgiO1efX0cRvUEdkws7ZQc,MRACAJ,43.9621223,17.3702687,1,,OK,"locality,political"
65,APPROXIMATE,"47250, Mračin, Croatia",ChIJyWjlfjoVZEcR7DqVOlQ7UO0,MRACIN,45.4358022,15.4097034,1,47250,OK,"locality,political"
66,APPROXIMATE,"Mraj, Syria",ChIJQbwqoqbGIxURkV8Vx7HrKEI,MRAJ,34.9265267,36.1803335,1,,OK,"locality,political"
67,,,,MRAKRAZE,,,0,,ZERO_RESULTS,
68,APPROXIMATE,"Mramorac, Serbia",ChIJj6-qBO7MUEcRfxoQVJNyDpA,MRAMORAC,44.2846211,20.8954893,1,,OK,"locality,political"
69,APPROXIMATE,"Mramorak, Serbia",ChIJff2AYrdiUEcREaP4561s2a0,MRAMORAK,44.9118989,20.9700843,1,,OK,"locality,political"
70,APPROXIMATE,"Mravince, Croatia",ChIJgcEhknVfNRMRWwd8IWoM2_A,MRAVINCI,43.5327895,16.5160335,1,,OK,"locality,political"
71,APPROXIMATE,"Mravinjac, Bosnia and Herzegovina",ChIJoUq-ZP-JWEcRgONe00ZwzEo,MRAVINJAC,43.6297721,18.9409415,1,,OK,"locality,political"
72,,,,MRAVINJAK,,,0,,ZERO_RESULTS,
73,,,,MRAVORATZ,,,0,,ZERO_RESULTS,
74,ROOFTOP,"2601 Ashby Dr, Wilmington, NC 28411, USA",ChIJ10GXH2KLqYkRFgZBlSNSxUA,MRAY,34.282283,-77.83809049999999,1,28411,OK,"establishment,point_of_interest"
75,APPROXIMATE,"Mrazovac, Bosnia and Herzegovina",ChIJP3NfXcnKZkcRXavFEynYAuA,MRAZOVAI,45.08116099999999,16.0757025,1,,OK,"locality,political"
76,,,,MRCINE,,,0,,ZERO_RESULTS,
77,APPROXIMATE,"Mrkopalj, Croatia",ChIJR9SvL5KAZEcRYMIrhlCtAAQ,MRCOTALJ,45.3148765,14.8520695,1,,OK,"locality,political"
78,APPROXIMATE,"Mike, Musselfork Township, MO 64658, USA",ChIJzVhUfr_ywocRwibamFrrd0Q,MREIKEB,39.5964145,-92.9574179,2,64658,OK,"colloquial_area,political"
79,,,,MRELJIM,,,0,,ZERO_RESULTS,
80,,,,MRICHTE,,,0,,ZERO_RESULTS,
81,APPROXIMATE,"Mrkopalj, Croatia",ChIJR9SvL5KAZEcRYMIrhlCtAAQ,MRKOLOLJ,45.3148765,14.8520695,1,,OK,"locality,political"
82,APPROXIMATE,"Mrkopalj, Croatia",ChIJR9SvL5KAZEcRYMIrhlCtAAQ,MRKOPAIJ,45.3148765,14.8520695,1,,OK,"locality,political"
83,APPROXIMATE,"Mrkopalj, Croatia",ChIJR9SvL5KAZEcRYMIrhlCtAAQ,MRKOPALI,45.3148765,14.8520695,1,,OK,"locality,political"
84,APPROXIMATE,"Mrkopalj, Croatia",ChIJR9SvL5KAZEcRYMIrhlCtAAQ,MRKOPALJ,45.3148765,14.8520695,1,,OK,"locality,political"
85,APPROXIMATE,"Mrkopalj, Croatia",ChIJR9SvL5KAZEcRYMIrhlCtAAQ,MRKOPELJ,45.3148765,14.8520695,1,,OK,"locality,political"
86,APPROXIMATE,"Mrljane, Croatia",ChIJebsIys60NBMRndR9UGH_8p8,MRLJANE,43.9675746,15.3538124,1,,OK,"locality,political"
87,APPROXIMATE,"Rõuge, Võru County, Estonia",ChIJOyCkBzH46kYRVyHSx2zG0DQ,MROUGE,57.7297816,26.9169264,1,,OK,"locality,political"
88,,,,MRYAMMI,,,0,,ZERO_RESULTS,
89,APPROXIMATE,"3273 Mrzlo Polje, Slovenia",ChIJJadrN--fZUcRJaZ5fFpIlfk,MRZLOPOLJE,46.1048552,15.359306,1,3273,OK,"locality,political"
90,APPROXIMATE,"Mrzović, Croatia",ChIJb9sHVXP3XEcRfLqVmJ2cj88,MRZOVIC,45.3286503,18.5930129,1,,OK,"locality,political"
91,APPROXIMATE,"Mount Lebanon, Lebanon",ChIJ1zmyh1sQIhUR-4tRdYx3f1I,MT. LEBAUN,34.3,36.116667,1,,OK,"establishment,natural_feature"
92,,,,MTA. LIBANA,,,0,,ZERO_RESULTS,
93,,,,MTAYLA,,,0,,ZERO_RESULTS,
94,APPROXIMATE,"Media, PA 19063, USA",ChIJN-1zPAjpxokRzksi9U7ZY54,MTEIA,39.9167783,-75.387693,1,19063,OK,"locality,political"
95,APPROXIMATE,"Mtein, Lebanon",ChIJF9Q-L4E3HxURaJgh_l0NbI8,MTEIN,33.89342060000001,35.7438242,1,,OK,"locality,political"
96,,,,MU(ILEG)TA,,,0,,ZERO_RESULTS,
97,ROOFTOP,"Munich International Airport (MUC), Nordallee 25, 85356 München, Germany",ChIJRW3aI1kTnkcRS89WOoV6xeM,MUC,48.3536621,11.7750279,1,85356,OK,"airport,establishment,point_of_interest"
98,,,,MUC DORJE,,,0,,ZERO_RESULTS,
99,,,,MUC. SPALATO,,,0,,ZERO_RESULTS,
100,APPROXIMATE,"Peer Muchalla, Panchkula, Punjab, India",ChIJ2U1MOYyUDzkRGuE5DS9ALCI,MUCHALA S.,30.6596484,76.867772,1,,OK,"political,sublocality,sublocality_level_1"
101,,,,MUDAGUA,,,0,,ZERO_RESULTS,
102,,,,MUG- SID,,,0,,ZERO_RESULTS,
103,APPROXIMATE,"Maghar, Israel",ChIJt6S78G46HBURuXItzmn4q3o,MUGHAR,32.890704,35.40461,2,,OK,"locality,political"
104,GEOMETRIC_CENTER,"Muhaber, 8000 Novo mesto, Slovenia",ChIJnYCDOy4AZUcRKCrTOyyVKos,MUHABER,45.82295269999999,15.1475798,1,8000,OK,route
105,APPROXIMATE,"Mũi Né, Phan Thiet, Bình Thuận Province, Vietnam",ChIJtZZ8f0yOdjERJAcCwXJrQBo,MUINE,10.9332105,108.2871837,1,,OK,"political,sublocality,sublocality_level_1"
106,APPROXIMATE,"20236, Mokošica, Croatia",ChIJVbQ1gf10TBMRcvQ1U1GtACY,MUKOSICA,42.6747679,18.092449,1,20236,OK,"locality,political"
107,,,,MUKRAVO,,,0,,ZERO_RESULTS,
108,APPROXIMATE,"Mulki, Kilpady, Karnataka, India",ChIJJ78qq1WtvDsRMuC25PTySwg,MULKI,13.0655563,74.7977961,1,,OK,"locality,political,sublocality,sublocality_level_1"
109,GEOMETRIC_CENTER,"Munat, 52204, Ližnjan, Croatia",ChIJM2HU7acuY0cRJdqL5CtcgCE,MUNAT,44.8285021,13.9544245,2,52204,OK,route
110,ROOFTOP,"Av. Manuel L. Barragán 325, Anáhuac, 66450 San Nicolás de los Garza, N.L., Mexico",ChIJTzZKpl2UYoYRSOLXd-JQsJM,MUNCHER,25.743228,-100.313084,1,66450,OK,"establishment,food,point_of_interest,restaurant"
111,APPROXIMATE,"Mundenheim, 67059 Ludwigshafen am Rhein, Germany",ChIJgbbxJXzMl0cRqUuhsFCPQ5o,MUNDENHEIM,49.4719156,8.424614,1,67059,OK,"political,sublocality,sublocality_level_1"
112,,,,MUNSKA GREBA,,,0,,ZERO_RESULTS,
113,,,,MUO CATTARO,,,0,,ZERO_RESULTS,
114,,,,MUR. SREDISCE,,,0,,ZERO_RESULTS,
115,ROOFTOP,"4340 N Knoll Dr, Fresno, CA 93722, USA",ChIJmZ-THj5mlIARZ66MvWeAbxU,MURACH,36.799793,-119.858135,1,93722,OK,"book_store,establishment,point_of_interest,store"
116,,,,MURACHE,,,0,,ZERO_RESULTS,
117,,,,MURADIO,,,0,,ZERO_RESULTS,
118,APPROXIMATE,"Muraj, Croatia",ChIJ4xIEDNpxY0cRIaMRrQXjqtE,MURAJ,45.0511674,14.6004689,1,,OK,"locality,political"
119,,,,MURAUCE,,,0,,ZERO_RESULTS,
120,APPROXIMATE,"Murdan, Iran",ChIJfWh5-Fnb-z4R5lLgEnH5m0E,MURDAN,28.251459,57.089489,1,,OK,"locality,political"
121,,,,MURDICE,,,0,,ZERO_RESULTS,
122,GEOMETRIC_CENTER,"Murki, Poland",ChIJTS1vqqADFEcRZXuywfPD7vw,MUREK,49.7655699,18.6946999,1,43,OK,route
123,APPROXIMATE,"9000 Murska Sobota, Slovenia",ChIJKZKrLeU-b0cRxDjv-fe9hCY,MURESKA SUBOTA,46.6581381,16.1610293,1,9000,OK,"locality,political"
124,APPROXIMATE,"Murine, Croatia",ChIJAZ5uK898e0cRUQqT1XoVybc,MURINA,45.4520443,13.5394896,1,,OK,"locality,political"
125,,,,MURSESA,,,0,,ZERO_RESULTS,
126,APPROXIMATE,"87-815 Mursk, Poland",ChIJR5dq2ZaEHEcRO8dhbf-6O4Q,MURSKA,52.6112676,19.2262966,1,87-815,OK,"locality,political"
127,APPROXIMATE,"9000 Murska Sobota, Slovenia",ChIJKZKrLeU-b0cRxDjv-fe9hCY,MURSKA SOBOTA,46.6581381,16.1610293,1,9000,OK,"locality,political"
128,,,,MURSKA SRED.,,,0,,ZERO_RESULTS,
129,APPROXIMATE,"9000 Murska Sobota, Slovenia",ChIJKZKrLeU-b0cRxDjv-fe9hCY,MURSKA SUBOTA ESLOVENIA,46.6581381,16.1610293,1,9000,OK,"locality,political"
130,APPROXIMATE,"9000 Murska Sobota, Slovenia",ChIJKZKrLeU-b0cRxDjv-fe9hCY,MURSKA-SOBATA,46.6581381,16.1610293,1,9000,OK,"locality,political"
131,APPROXIMATE,"9000 Murska Sobota, Slovenia",ChIJKZKrLeU-b0cRxDjv-fe9hCY,MURSKAZUBUTA,46.6581381,16.1610293,1,9000,OK,"locality,political"
132,APPROXIMATE,"Mursko Središće, Croatia",ChIJv5Phgq60aEcRANcrhlCtAAQ,MURSKO,46.5131065,16.4394325,1,,OK,"locality,political"
133,APPROXIMATE,"Mursko Središće, Croatia",ChIJv5Phgq60aEcRANcrhlCtAAQ,MURSKO SREDISCE,46.5131065,16.4394325,1,,OK,"locality,political"
134,APPROXIMATE,"Mursko Središće, Croatia",ChIJv5Phgq60aEcRANcrhlCtAAQ,MURSKO SRELISCE,46.5131065,16.4394325,1,,OK,"locality,political"
135,APPROXIMATE,"Murta, Campbell Township, AR 72476, USA",ChIJtWcofsSX1ocRPbfXI_BiizM,MURTA,36.1134024,-90.8937296,1,72476,OK,"colloquial_area,political"
136,APPROXIMATE,"Murter, Croatia",ChIJzxQQXDjQNBMRkFdtvprV2oI,MURTER,43.8083553,15.6002024,1,,OK,"establishment,natural_feature"
137,APPROXIMATE,"Murter, Croatia",ChIJl1DU9yrONBMRMAylUdP7-AY,MURTERA,43.8203478,15.5881451,1,,OK,"locality,political"
138,APPROXIMATE,"Murtoa VIC 3390, Australia",ChIJ6WGlyWjJz2oR8LGgMKR5BQQ,MURTORA,-36.6144503,142.4698649,1,3390,OK,"locality,political"
139,,,,MURUSCHATS,,,0,,ZERO_RESULTS,
140,GEOMETRIC_CENTER,"Askern House/High St, Doncaster DN6 0AA, United Kingdom",ChIJfTE1BLgTeUgR8cKej4ArGk8,MURVIC,53.61271199999999,-1.152065,1,DN6 0AA,OK,"establishment,point_of_interest"
141,APPROXIMATE,"Murvica, Croatia",ChIJo3qGs8aDShMRbAQBDnzDXWk,MURVICA,43.2673222,16.5939164,1,,OK,"locality,political"
142,GEOMETRIC_CENTER,"Put Murvice, 23000, Zadar, Croatia",ChIJ4fyUB4n6YUcRgEqsUdi4Bds,MURVICE,44.1107995,15.2453645,1,23000,OK,route
143,,,,MUSHKA,,,0,,ZERO_RESULTS,
144,ROOFTOP,"Music, Workman Mill Rd, Whittier, CA 90601, USA",ChIJsdi-kTjRwoAR2am16AXUUGw,MUSIC,34.0182694,-118.0340812,6,90601,OK,premise
145,,,,MUSITON,,,0,,ZERO_RESULTS,
146,ROOFTOP,"Groene Velden 83, 8211 BB Lelystad, Netherlands",ChIJLcf_bK0nxkcRKaMUe18ob54,MUSJE,52.53433219999999,5.500289299999999,1,8211 BB,OK,"establishment,point_of_interest,school"
147,,,,MUSOLUK,,,0,,ZERO_RESULTS,
148,ROOFTOP,"Via Opessina, 4, 14040 Castelnuovo Calcea AT, Italy",ChIJ5RwvqdOOh0cRlEV9NZn2dyM,MUSSIAN,44.774138,8.288008999999999,1,14040,OK,"establishment,lodging,point_of_interest"
149,GEOMETRIC_CENTER,"2822 Bybrua, Norway",ChIJ5xZXvO7TQUYRIXronTWSpaQ,MUSTAD,60.80918089999999,10.4743901,2,2822,OK,"establishment,point_of_interest"
150,ROOFTOP,"Bahnstraße 17, 41569 Rommerskirchen, Germany",ChIJ-XLNL9dJv0cRSzKrf87W9gg,MUSZ,51.03800510000001,6.699104999999999,1,41569,OK,"establishment,health,physiotherapist,point_of_interest"
151,APPROXIMATE,"2366 Muta, Slovenia",ChIJtcicT2_tb0cRE4DfDgf3RpU,MUTA,46.6097366,15.1629995,1,2366,OK,"locality,political"
152,APPROXIMATE,"2366 Muta, Slovenia",ChIJtcicT2_tb0cRE4DfDgf3RpU,MUTA SLOVENIA,46.6097366,15.1629995,1,2366,OK,"locality,political"
153,APPROXIMATE,"53234, Mutilić, Croatia",ChIJv4iMQocKYUcRnKA73C2xOec,MUTILIC,44.5011717,15.7740719,1,53234,OK,"locality,political"
154,ROOFTOP,"9500 Euclid Ave # P57, Cleveland, OH 44195, USA",ChIJUXh0BJn7MIgR7PRxGoWWe7Q,MUZINA,41.5026388,-81.6210615,2,44195,OK,"doctor,establishment,health,point_of_interest"
155,ROOFTOP,"1714 E Idahome St, West Covina, CA 91791, USA",ChIJrySAZTEow4AR9J-CqovHLfs,MUZJLA,34.0744326,-117.9093356,1,91791,OK,"establishment,point_of_interest,store"
156,APPROXIMATE,"Muzlja, Zrenjanin, Serbia",ChIJSWz_5VzDWkcRuU7db_EUGvg,MUZLJA,45.3460493,20.4008266,1,,OK,"neighborhood,political"
157,ROOFTOP,"Lot 69, 241-245, Jalan Pintu Pong, Seksyen 8, 15000 Kota Bharu, Kelantan, Malaysia",ChIJy0N2s8-vtjERT_vru6iFxGo,MYDIN,6.130447999999999,102.241499,2,15000,OK,"establishment,food,grocery_or_supermarket,point_of_interest,store,supermarket"
158,,,,MYEAT,,,0,,ZERO_RESULTS,
159,,,,MYOUI,,,0,,ZERO_RESULTS,
160,APPROXIMATE,"Myslowice, Poland",ChIJDSpasl7EFkcR7Vi7jGovswU,MYSLOWITZ,50.2080466,19.1660513,1,41,OK,"locality,political"
161,GEOMETRIC_CENTER,"Magorofani Street, Tanzania",ChIJg75Pyq9oWhgRC-UEDjkUghs,MZABBE,-6.9239348,37.5690808,1,,OK,"establishment,point_of_interest,university"
162,,,,MZBLE,,,0,,ZERO_RESULTS,
163,APPROXIMATE,"Bzoummar, Lebanon",ChIJu0ITdx1HHxURisZhPWsEfaQ,MZOUMMAR,33.9872473,35.6828158,1,,OK,"administrative_area_level_3,political"
164,,,,MZRLA LUZA,,,0,,ZERO_RESULTS,
165,ROOFTOP,"n, 3534 W Touhy Ave, Skokie, IL 60076, USA",ChIJM7chc0rOD4gREi1pT594rhI,N,42.0123816,-87.7176849,1,60076,OK,premise
166,APPROXIMATE,"Chir, Algeria",ChIJcZHGcHE39BIRENPJHugfAf8,N CHIR,35.2135627,6.131492799999999,1,,OK,"locality,political"
167,,,,N KANGILIN,,,0,,ZERO_RESULTS,
168,,,,N KANGIZE,,,0,,ZERO_RESULTS,
169,ROOFTOP,"80 N Genesee St, Utica, NY 13502, USA",ChIJu_DoBBdH2YkR4i-3yToNsCY,N' BABE,43.1068822,-75.2209484,1,13502,OK,"bar,establishment,food,point_of_interest,restaurant"
170,,,,N'KAIR,,,0,,ZERO_RESULTS,
171,ROOFTOP,"815 Hwy T, Foristell, MO 63348, USA",ChIJwXiFKFi03ocRYUH3WoJgf9U,N(INC.),38.7469366,-90.96250270000002,1,63348,OK,"establishment,food,point_of_interest"
172,APPROXIMATE,"Nagybaracska, 6527 Hungary",ChIJP262QkcmQ0cRPjtnfiADnrI,N. BARACKA,46.0444015,18.9048387,2,6527,OK,"locality,political"
173,APPROXIMATE,"Novi Bečej, Serbia",ChIJ80irpp4tW0cREU7Bek9Q-F8,N. BECEJ,45.6011009,20.1415393,1,,OK,"locality,political"
174,,,,N. BETCHEI,,,0,,ZERO_RESULTS,
175,ROOFTOP,"40 Buckskin Rd, Belgrade, MT 59714, USA",ChIJzbl418k3RVMR8Jdny9pDu-Q,N. CHIR,45.773792,-111.232611,1,59714,OK,"establishment,point_of_interest,store"
176,APPROXIMATE,"Krujë District, Albania",ChIJqTXaj3nOURMRgQOdmWkjxog,N. CRUJA,41.5094765,19.7710732,1,,OK,"locality,political"
177,APPROXIMATE,"Faloj, Rajasthan, India",ChIJt2q_tW4NZzkR9uh9kbs6Yhg,N. FALOJ,23.8692644,73.8713099,1,,OK,"locality,political"
178,APPROXIMATE,"Futog, Serbia",ChIJZUOYxYUNW0cRo5cqc_WP3RE,N. FUTOG,45.2419366,19.7159502,1,,OK,"locality,political"
179,APPROXIMATE,"Nova Gajdobra, Serbia",ChIJm7nlYA5lW0cRpJCPnCaqqbI,N. GAJDOBRA,45.3260608,19.4330546,1,,OK,"locality,political"
180,APPROXIMATE,"35400, Nova Gradiška, Croatia",ChIJdbWN_p5hZ0cRUMYrhlCtAAQ,N. GRADISKA,45.2581558,17.3839626,1,35400,OK,"locality,political"
181,,,,N. KANEZCE,,,0,,ZERO_RESULTS,
182,APPROXIMATE,"Kanjiža, Serbia",ChIJk2PIMNiQREcRX-nezP9EdvU,N. KANJIZA,46.061602,20.0469576,1,,OK,"locality,political"
183,APPROXIMATE,"Konya, Turkey",ChIJRfcV1miF0BQRZwkGCPzQDSQ,N. KONIJA,37.8746429,32.4931554,1,,OK,"locality,political"
184,GEOMETRIC_CENTER,"Maniza Rd, Wharton, TX 77488, USA",ChIJP0K7x2hzQYYRiqDK2Xv8p4Q,N. MANIZA,29.3842559,-96.09375480000001,1,77488,OK,route
185,APPROXIMATE,"46530 Pöljö, Finland",ChIJkR1JnVFXkEYRpkkAmWHvIHs,N. POLJO,61.010575,27.1731947,1,46530,OK,"locality,political"
186,APPROXIMATE,"Novi Sad, Serbia",ChIJVTTpPWEQW0cRKP4kN2h9bws,N. SAD,45.2671352,19.8335496,1,,OK,"locality,political"
187,APPROXIMATE,"Nová Skřeněř, 504 01 Nový Bydžov, Czechia",ChIJrT4ZjoQhDEcRvodFrwUYkHI,N. SKRENER,50.2418913,15.4251953,2,504 01,OK,"neighborhood,political"
188,,,,N. TRADJIS,,,0,,ZERO_RESULTS,
189,APPROXIMATE,"Vrbas, Serbia",ChIJC-vFBVpFW0cRZq3L13mlPTQ,N. VRBAS,45.5701534,19.6449683,1,,OK,"locality,political"
190,,,,N.BETCHEI,,,0,,ZERO_RESULTS,
191,ROOFTOP,"40 Buckskin Rd, Belgrade, MT 59714, USA",ChIJzbl418k3RVMR8Jdny9pDu-Q,N.CHIR,45.773792,-111.232611,1,59714,OK,"establishment,point_of_interest,store"
192,GEOMETRIC_CENTER,"N Elmer St, Tampa, FL 33604, USA",ChIJQa90tPPGwogRaHZMoAP69Zs,N.ELEMER,28.0246361,-82.4399639,9,33604,OK,route
193,APPROXIMATE,"Backa Palanka, Serbia",ChIJlx5wQnN6W0cRk2T25F7wB6M,N.PALANKA,45.2497275,19.3967698,1,,OK,"locality,political"
194,,,,NAAMO,,,0,,ZERO_RESULTS,
195,ROOFTOP,"9329 Wurzbach Rd #101, San Antonio, TX 78240, USA",ChIJl9iMy7ZgXIYR0WCj61RarIE,NAARA,29.5302997,-98.5647492,1,78240,OK,"cafe,establishment,food,point_of_interest,restaurant,store"
196,,,,NAB. OSM.,,,0,,ZERO_RESULTS,
197,GEOMETRIC_CENTER,"620, Old Palam Road, Nishat Park, Sector 15 Dwarka, Hari Vihar, Sector 16A, Dwarka, Delhi, 110078, India",ChIJA3i2-EQFDTkRXgMtsmv3IhY,NABAR TAV,28.6195545,77.02469959999999,2,110078,OK,"establishment,point_of_interest"
198,APPROXIMATE,"Nabatieh, Lebanon",ChIJFayh16WUHhURTExR4EGUYiM,NABATHIEH,33.3771898,35.4835902,1,,OK,"locality,political"
199,APPROXIMATE,"Nabatieh, Lebanon",ChIJFayh16WUHhURTExR4EGUYiM,NABATICH,33.3771898,35.4835902,1,,OK,"locality,political"
200,APPROXIMATE,"Nabatieh, Lebanon",ChIJFayh16WUHhURTExR4EGUYiM,NABATIEH,33.3771898,35.4835902,1,,OK,"locality,political"
201,,,,NABATIO,,,0,,ZERO_RESULTS,
202,APPROXIMATE,"Nabatieh, Lebanon",ChIJFayh16WUHhURTExR4EGUYiM,NABATTEH,33.3771898,35.4835902,1,,OK,"locality,political"
203,,,,NABBONCHE,,,0,,ZERO_RESULTS,
204,,,,NABCH,,,0,,ZERO_RESULTS,
205,,,,NABEH SAFA,,,0,,ZERO_RESULTS,
206,APPROXIMATE,"Nabet, Myanmar (Burma)",ChIJlXkY8tRhyjARQmyT5u7Fzeg,NABET,21.7660813,95.35077969999999,1,,OK,"locality,political"
207,,,,NABET KARDAN,,,0,,ZERO_RESULTS,
208,APPROXIMATE,"Nabha, Punjab 147201, India",ChIJVf9z8aM5EDkR5pRqVYCvy9M,NABHA,30.3736743,76.14519039999999,1,147201,OK,"locality,political"
209,ROOFTOP,"Nabine, 279 Eulsu-gil, Nae-myeon, Hongcheon-gun, Gangwon-do, South Korea",ChIJRdNI0SYVYjUR7T0ZMN8a3hs,NABINE,37.8550777,128.3319887,1,252-850,OK,"establishment,park,point_of_interest"
210,APPROXIMATE,Nablus,ChIJl1ZCUPbgHBURhD0VvTCpC38,NABLUS,32.2226678,35.2621461,1,,OK,"locality,political"
211,,,,NABOVAN,,,0,,ZERO_RESULTS,
212,,,,NABUTIE,,,0,,ZERO_RESULTS,
213,ROOFTOP,"Rushin Na Chara, Ardbear, Clifden, Co. Galway, Ireland",ChIJT7xgeVs7WkgRuSrt3zQFIDo,NACHARA,53.4745157,-10.0202287,1,,OK,premise
214,APPROXIMATE,"547 01 Nachod, Czechia",ChIJz8Eg1mxlDkcRm9m3wJBz_6A,NACHOD,50.41457219999999,16.1656347,1,547 01,OK,"locality,political"
215,,,,NACICE,,,0,,ZERO_RESULTS,
216,,,,NACISE,,,0,,ZERO_RESULTS,
217,,,,NACKEB,,,0,,ZERO_RESULTS,
218,,,,NACKIB,,,0,,ZERO_RESULTS,
219,,,,NAD SABOS,,,0,,ZERO_RESULTS,
220,,,,NADAJSELO,,,0,,ZERO_RESULTS,
221,APPROXIMATE,"Nadalj, Serbia",ChIJC1LLhew5W0cRvkCZkz7BezU,NADALJ,45.5096935,19.922858,1,,OK,"locality,political"
222,,,,NADI CHAHZAUR,,,0,,ZERO_RESULTS,
223,,,,NADI EL ARAYECHE,,,0,,ZERO_RESULTS,
224,,,,NADI EL AYOUN,,,0,,ZERO_RESULTS,
225,GEOMETRIC_CENTER,"Sucharskiego 19, 66-470 Kostrzyn nad Odrą, Poland",ChIJ1-D42z1zB0cRiBAxCTy6kic,NADI EL AYOUR,52.592735,14.663662,1,66-470,OK,"electrician,establishment,home_goods_store,point_of_interest,store"
226,,,,NADIRESTAD,,,0,,ZERO_RESULTS,
227,,,,NADJ LAK,,,0,,ZERO_RESULTS,
228,,,,NADJENI,,,0,,ZERO_RESULTS,
229,,,,NADJINE,,,0,,ZERO_RESULTS,
230,APPROXIMATE,"Nagini, Himachal Pradesh 175123, India",ChIJaf3OaiCyBTkRXP5teMgXM80,NADJINI,31.6395187,77.4024166,1,175123,OK,"locality,political"
231,GEOMETRIC_CENTER,"Podlesek, Praha, Czechia",ChIJMQj6TaeNC0cR6ZTaNUfDZlc,NADLESEK,50.0476707,14.593318,1,,OK,route
232,APPROXIMATE,"1386 Nadlesk, Slovenia",ChIJx4Oi-yXPZEcRGcvlaLu62CI,NADLESK,45.7041344,14.466338,1,1386,OK,"locality,political"
233,,,,NADOVO,,,0,,ZERO_RESULTS,
234,,,,NADRLJON,,,0,,ZERO_RESULTS,
235,APPROXIMATE,"Nagaki, Sado, Niigata Prefecture 952-1306, Japan",ChIJb5Os7apm818RcHz1yfdT0v0,NAGAKI,38.0065336,138.3384988,2,952-1306,OK,"political,sublocality,sublocality_level_2"
236,GEOMETRIC_CENTER,"Bar, Montenegro",ChIJle8VJad2ThMRpbThHO-cuyo,NAGIBODOLJA,42.1118819,19.0905509,1,,OK,"establishment,point_of_interest,school"
237,APPROXIMATE,"Zrenjanin, Serbia",ChIJs5q3kVPbWkcRjKCg8op7C0Q,NAGY BECKEREK,45.3815612,20.3685737,1,,OK,"locality,political"
238,,,,NAGY TARNON,,,0,,ZERO_RESULTS,
239,APPROXIMATE,"Zrenjanin, Serbia",ChIJs5q3kVPbWkcRjKCg8op7C0Q,NAGYBECKEREK,45.3815612,20.3685737,1,,OK,"locality,political"
240,APPROXIMATE,"Zrenjanin, Serbia",ChIJs5q3kVPbWkcRjKCg8op7C0Q,NAGYBECSKEREK,45.3815612,20.3685737,1,,OK,"locality,political"
241,APPROXIMATE,"Nagylak, 6933 Hungary",ChIJn9-nGZBVREcRUM4eDCnEAAQ,NAGYLAC,46.1737713,20.7111982,1,6933,OK,"locality,political"
242,,,,NAGYSUKOVEC,,,0,,ZERO_RESULTS,
243,,,,NAHARDA,,,0,,ZERO_RESULTS,
244,GEOMETRIC_CENTER,"C-140, 1st Floor, Sector-63,, D Block, Sector 63, Noida, Uttar Pradesh 201301, India",ChIJBX1Qt_DvDDkRRv4FYK_ocJc,NAHEK HOMS,28.6266412,77.3848031,1,201301,OK,"establishment,point_of_interest,real_estate_agency"
245,GEOMETRIC_CENTER,"1 South Prospect Street, Rehab, Level 2, Burlington, VT 05401, USA",ChIJObfSOEN6ykwRoCTzn4Fq7kw,NAHEL,44.479335,-73.193924,2,05401,OK,"doctor,establishment,health,point_of_interest"
246,,,,NAHERNE,,,0,,ZERO_RESULTS,
247,,,,NAHLO,,,0,,ZERO_RESULTS,
248,ROOFTOP,"6465 S Yale Ave, Tulsa, OK 74136, USA",ChIJT3nGMV6StocR3lpyi27BGz4,NAHRA,36.070558,-95.92056199999999,1,74136,OK,"doctor,establishment,health,point_of_interest"
249,ROOFTOP,"260 Federal St, Boston, MA 02116, USA",ChIJCcDaJYJw44kRxsIlVVEk71s,NAIVA,42.3536519,-71.05612479999999,1,02116,OK,"establishment,point_of_interest"
250,GEOMETRIC_CENTER,"ul. ""Najdan Gerov"", 5100 Tsentar, Gorna Oryahovitsa, Bulgaria",ChIJpWOIvAQpqUARcofkdoDe4EI,NAJDAN,43.1186664,25.6953901,1,5100,OK,route
251,,,,NAJIRAT,,,0,,ZERO_RESULTS,
252,APPROXIMATE,"Zrenjanin, Serbia",ChIJs5q3kVPbWkcRjKCg8op7C0Q,NAJYBEKSKEREC,45.3815612,20.3685737,1,,OK,"locality,political"
253,,,,NAKIPELESKI,,,0,,ZERO_RESULTS,
254,APPROXIMATE,"42-235 Nakło, Poland",ChIJY39CL8MUF0cRo9U_wvixbSA,NAKLE,50.6554535,19.7252114,4,42-235,OK,"locality,political"
255,,,,NAKNOUNICH,,,0,,ZERO_RESULTS,
256,,,,NAKO V(INC),,,0,,ZERO_RESULTS,
257,APPROXIMATE,"Nakovo, Serbia",ChIJHzu2GQUgRUcROD3wFTJ536Y,NAKOFALVA,45.8788922,20.5527173,1,,OK,"locality,political"
258,,,,NAKORV,,,0,,ZERO_RESULTS,
259,,,,NAKOVA,,,0,,ZERO_RESULTS,
260,,,,NAKOVAN,,,0,,ZERO_RESULTS,
261,APPROXIMATE,"Nakovo, Serbia",ChIJHzu2GQUgRUcROD3wFTJ536Y,NAKOVO,45.8788922,20.5527173,1,,OK,"locality,political"
262,,,,NAKOWO,,,0,,ZERO_RESULTS,
263,ROOFTOP,"1999 S Bascom Ave, Campbell, CA 95008, USA",ChIJQ_7tr8I0joARCcLuhD3Wy_4,NAKVO,37.2876887,-121.9352682,1,95008,OK,"establishment,point_of_interest"
264,,,,NALCOVA,,,0,,ZERO_RESULTS,
265,GEOMETRIC_CENTER,"Calle de Olmeca, Guatemala",ChIJGeyt9TO7iYUR8G-1RybvgO8,NALEB,14.5358377,-90.4465149,1,,OK,"establishment,point_of_interest,school"
266,,,,NALENCI,,,0,,ZERO_RESULTS,
267,GEOMETRIC_CENTER,"Nalina, Sarajevo 71000, Bosnia and Herzegovina",ChIJBaCs8brIWEcRVC5O9aRsj80,NALINE,43.8533743,18.4405997,1,71000,OK,route
268,APPROXIMATE,"51511, Malinska, Croatia",ChIJB083QltvY0cRdII-7PcRZkA,NALISNSKA,45.1250642,14.5288239,1,51511,OK,"locality,political"
269,GEOMETRIC_CENTER,"Jalan Hi. Hasan, Baru, Baolan, Kabupaten Toli-Toli, Sulawesi Tengah 94514, Indonesia",ChIJ65mTY1MrcTIReoSqVku2MIw,NALU HASSAN,1.042433,120.810725,1,94514,OK,route
270,ROOFTOP,"226 Williams Ln, Kingston, NY 12401, USA",ChIJNQmfn5EG3YkRdv5l35uYkCs,NAMRICH,41.99654109999999,-74.0873673,1,12401,OK,"establishment,point_of_interest,store"
271,ROOFTOP,"30100 Chagrin Blvd #210, Pepper Pike, OH 44124, USA",ChIJWS9lALYDMYgRLL-SINu-rWA,NAMS,41.46149399999999,-81.4661935,1,44124,OK,"establishment,point_of_interest"
272,GEOMETRIC_CENTER,"Via Don Canestri, 15121 Alessandria AL, Italy",ChIJP4NEnx90h0cRx9I3J8EOgUg,NANESTRI,44.900391,8.6183288,6,15121,OK,route
273,APPROXIMATE,"Nantes, France",ChIJra6o8IHuBUgRMO0NHlI3DQQ,NAONA,47.218371,-1.553621,1,,OK,"locality,political"
274,,,,NAOZARK,,,0,,ZERO_RESULTS,
275,ROOFTOP,"6550 Nieman Rd, Shawnee, KS 66203, USA",ChIJg7pvAtvswIcRADp7ZwYwzx8,NAPA,39.0094033,-94.71511690000001,1,66203,OK,"car_repair,establishment,point_of_interest,store"
276,ROOFTOP,"1301 N Broadway St, Pittsburg, KS 66762, USA",ChIJuXvzpV_Cx4cR_SJ_8EPVdSE,NAPOLI,37.4196255,-94.705405,1,66762,OK,"establishment,food,point_of_interest,restaurant"
277,,,,NARACHE,,,0,,ZERO_RESULTS,
278,,,,NARADNOWSKI,,,0,,ZERO_RESULTS,
279,ROOFTOP,"622 E 21st St, Bakersfield, CA 93305, USA",ChIJpcgB19Vr6oARPJV1CmbTP8Y,NARADUOVCI,35.376186,-118.993827,1,93305,OK,"bar,establishment,food,point_of_interest,restaurant"
280,APPROXIMATE,"Varaždin, Croatia",ChIJfQMx_M-qaEcR2dZfheqe-ts,NARAZDIN,46.305746,16.3366066,1,,OK,"locality,political"
281,APPROXIMATE,"Narda, 9793 Hungary",ChIJGSkRebe_bkcRAKceDCnEAAQ,NARD,47.2388584,16.4571612,2,9793,OK,"locality,political"
282,,,,NARDIJE,,,0,,ZERO_RESULTS,
283,ROOFTOP,"135 Cleveland Ave, Buffalo, NY 14222, USA",ChIJyekbF-YS04kROJs-N1MoRUg,NARDIN,42.9178404,-78.8734741,1,14222,OK,"establishment,point_of_interest,school"
284,GEOMETRIC_CENTER,"Nardina Pl, Dudley, NC 28333, USA",ChIJKxmcR0IHrIkR6sdx0ET-Pkc,NARDINA,35.334768,-78.0403892,1,28333,OK,route
285,GEOMETRIC_CENTER,"95 Nelson Street, Cazenovia, NY 13035, Cazenovia, NY 13035, USA",ChIJ798HLnOH2YkRGRDRYWw7r1E,NARDINE,42.9266473,-75.8407764,1,13035,OK,"establishment,health,pharmacy,point_of_interest,store"
286,APPROXIMATE,"51035 Nardini PT, Italy",ChIJbVSZCZ9hKhMRFapZykH2n58,NARDINI,43.8421026,10.9107815,1,51035,OK,"locality,political"
287,,,,NARDIZAK,,,0,,ZERO_RESULTS,
288,APPROXIMATE,"Narew, Poland",ChIJoVwentpCHkcR6lXfZdhZ-ds,NAREW,52.8451928,22.2941467,1,,OK,"establishment,natural_feature"
289,APPROXIMATE,"2000 Maribor, Slovenia",ChIJUSBA6qZ3b0cRIqoNvJCvUxA,NARIBOR,46.5546503,15.6458812,1,2000,OK,"locality,political"
290,ROOFTOP,"55 E Monroe St, Chicago, IL 60603, USA",ChIJaYmkeKQsDogRGEIqUYvnlrU,NARJAIOUN,41.8803304,-87.6256792,1,60603,OK,"establishment,point_of_interest"
291,APPROXIMATE,"12-122 Narty, Poland",ChIJHXvHpBzzHUcRRUX54RxRm6Q,NART,53.5398544,20.7856421,2,12-122,OK,"locality,political"
292,APPROXIMATE,"Nartë, Albania",ChIJw1_wSLo2RRMR-0Nxaqc7Fzw,NARTA,40.4977787,19.4571453,3,,OK,"locality,political"
293,APPROXIMATE,"10361, Trstenik Nartski, Croatia",ChIJ58oD5Kl7ZkcRn94K14X_IWI,NARTSKI O.,45.7766984,16.1771859,1,10361,OK,"locality,political"
294,APPROXIMATE,"Narua, Odisha, India",ChIJrXweS6eUGToRj02wjgMINdU,NARUA,19.9199841,86.00960599999999,1,,OK,"locality,political"
295,APPROXIMATE,"Narva, Estonia",ChIJh7Bmi9c3lEYR9CF9TV8qSrk,NARVA,59.37967979999999,28.1791333,1,,OK,"locality,political"
296,,,,NARYE,,,0,,ZERO_RESULTS,
297,ROOFTOP,"Hauptstraße 66, 73054 Eislingen/Fils, Germany",ChIJS6CVqzuhmUcRJDmaok0x_I0,NASCHITZE,48.6999364,9.7076655,1,73054,OK,"cafe,establishment,food,point_of_interest"
298,,,,NASCOVO,,,0,,ZERO_RESULTS,
299,ROOFTOP,"Wertheimer Str. 87, 97900 Külsheim, Germany",ChIJE8-tJr6ookcR2hkJBN7XhBw,NASENFUSS,49.69357979999999,9.465423399999999,1,97900,OK,"car_dealer,car_repair,establishment,point_of_interest,store"
300,,,,NASI CHIT,,,0,,ZERO_RESULTS,
301,GEOMETRIC_CENTER,"HaNasi St, Jerusalem, Israel",ChIJqynjP9bXAhUR7MunzipdO7w,NASI HARO,31.7695527,35.2132915,1,,OK,route
302,GEOMETRIC_CENTER,"Japan, 〒270-0161 千葉県流山市Hiregasaki, 15, 鰭ケ崎１５−１６ 大熊ビル００１号",ChIJo9SYhBqbGGAR9LTf1BYtAF0,NASICA,35.841093,139.905602,2,270-0161,OK,"establishment,hair_care,point_of_interest"
303,APPROXIMATE,"31500, Našice, Croatia",ChIJWfwHc0AMXUcR4MorhlCtAAQ,NASICE,45.4946861,18.0951118,1,31500,OK,"locality,political"
304,ROOFTOP,"9 9th St., Near Building Chemical Industries, King Fahd Rd، الصناعية الأولى، الدمام 32234 31431, Saudi Arabia",ChIJ67-U49PkST4Rx-sxF8OsIF8,NASICO,26.4014415,50.1360655,1,,OK,"establishment,point_of_interest"
305,,,,NASINCI,,,0,,ZERO_RESULTS,
306,GEOMETRIC_CENTER,"Isfahan Province, Najafabad, Nasir, Khajeh Nasire Toosi Alley, Iran",ChIJ4T6-lkHVvT8R5sPT_SRV7q0,NASIRE,32.6293392,51.3638175,2,,OK,route
307,,,,NASOCHE (ESLOVENIA),,,0,,ZERO_RESULTS,
308,APPROXIMATE,"Nasova, Slovenia",ChIJtZrlAKASb0cRyqMUy0jeHrU,NASOVA,46.6662764,15.8798758,1,,OK,"locality,political"
309,APPROXIMATE,"1218 Nasovče, Slovenia",ChIJKbZQtoLKekcRaWcgURc5P0o,NASOVCE,46.2118689,14.5167109,1,1218,OK,"locality,political"
310,APPROXIMATE,"1218 Nasovče, Slovenia",ChIJKbZQtoLKekcRaWcgURc5P0o,NASOVCE (ESLOVENIA),46.2118689,14.5167109,1,1218,OK,"locality,political"
311,,,,NASOVICE (ESLOVENIA),,,0,,ZERO_RESULTS,
312,APPROXIMATE,"Nassié, 81600 Técou, France",ChIJJXR1DZbWrRIRCG_A7syT-1k,NASSIE,43.83102299999999,1.924038,1,81600,OK,"colloquial_area,political"
313,ROOFTOP,"Nassif House, College Dr NE, Cedar Rapids, IA 52402, USA",ChIJzdHrqMrw5IcRDNK-BI-SVQg,NASSIF,41.987567,-91.656448,1,52402,OK,premise
314,APPROXIMATE,"23800 Nästi, Finland",ChIJS9pvngTpi0YRYRoZPFK1ACY,NASTI,60.798778,21.87273,1,23800,OK,"locality,political"
315,GEOMETRIC_CENTER,"Nasza, 84-104 Władysławowo, Poland",ChIJPyMqBChL_EYRsoDCOMVPg5o,NASZAN,54.82528929999999,18.3102623,10,84-104,OK,route
316,APPROXIMATE,"Natanga, Papua New Guinea",ChIJy21kVg-qAmkRABiIil_qhqU,NATANGA,-9.0682759,148.292007,1,,OK,"locality,political"
317,APPROXIMATE,"Natanjo, Guapí, Cauca, Colombia",ChIJAxuTzDj9MY4R39CTrH-Stxw,NATANJO,2.425488,-77.762253,1,196008,OK,"locality,political"
318,APPROXIMATE,"Netanya, Israel",ChIJ1XXAkwRAHRURIj88VL6V2Sw,NATANYA,32.321458,34.853196,1,,OK,"locality,political"
319,GEOMETRIC_CENTER,"438-439 โครงการ 8 ซอย 15/2 Kamphaeng Phet 3 Rd, Khwaeng Chatuchak, แขวง ลาดยาว, เขต จตุจักร Krung Thep Maha Nakhon 10900, Thailand",ChIJz2E3UhWc4jARbwyTVRqSOeU,NATAYA,13.8020683,100.551543,1,10900,OK,"establishment,furniture_store,home_goods_store,point_of_interest,store"
320,,,,NATLAK,,,0,,ZERO_RESULTS,
321,APPROXIMATE,"Kudirkos Naumiestis, Lithuania",ChIJERAeDem05kYRQIC6yY7RAAo,NAUMIESTIO,54.77499,22.8665119,1,,OK,"locality,political"
322,APPROXIMATE,"Naura, Punjab, India",ChIJbeOGFgWVGjkRojqMlwMzNvA,NAURA,31.1920539,76.0493444,1,,OK,"locality,political"
323,,,,NAUSATZ,,,0,,ZERO_RESULTS,
324,APPROXIMATE,"Navalja, Gujarat 391168, India",ChIJTzaoT2kxYDkRRkL9yvg3mJE,NAVALJA,22.0902794,74.10931409999999,1,391168,OK,"locality,political"
325,APPROXIMATE,"Navarre, Spain",ChIJhVbJl_eSUA0RDop817cZqx0,NAVARRA,42.6953909,-1.6760691,1,,OK,"administrative_area_level_1,political"
326,,,,NAVCICE,,,0,,ZERO_RESULTS,
327,APPROXIMATE,"Navi, 65550 Võru County, Estonia",ChIJHYzk5lL76kYR0WMNaHMzIco,NAVI,57.8769869,26.952981,1,65550,OK,"locality,political"
328,APPROXIMATE,"Novi Sad, Serbia",ChIJVTTpPWEQW0cRKP4kN2h9bws,NAVISAD,45.2671352,19.8335496,1,,OK,"locality,political"
329,,,,NAVIZAD,,,0,,ZERO_RESULTS,
330,,,,NAVRICI,,,0,,ZERO_RESULTS,
331,GEOMETRIC_CENTER,"Rue de Navrin, 45160 Olivet, France",ChIJpRj62abl5EcRH0gE1frFi74,NAVRIN,47.864103,1.881194,1,45160,OK,route
332,,,,NAXOBO,,,0,,ZERO_RESULTS,
333,,,,NAYAIE,,,0,,ZERO_RESULTS,
334,GEOMETRIC_CENTER,"6-3-251, near post office, 2nd floor, Rd Number 1, Balapur Basthi, Banjara Hills, Hyderabad, Telangana 500082, India",ChIJK7IkmjaXyzsRw4w1Di-ghDU,NAYASSA,17.419376,78.448594,1,500082,OK,"clothing_store,establishment,point_of_interest,store"
335,,,,NAYYSAO,,,0,,ZERO_RESULTS,
336,GEOMETRIC_CENTER,"114/25, 1st Main Road, Maruthi Nagar, Near-KEB Office Building, Madiwala, Cashier Layout, 1st Stage, BTM Layout, Bengaluru, Karnataka 560029, India",ChIJPaJ6sfgUrjsRsqkLEUNueBY,NAZAEB,12.922,77.613917,1,560029,OK,"establishment,point_of_interest"
337,GEOMETRIC_CENTER,"Geheinah, Markaz Juhaynah Al-Gharbyah, Sohag Governorate, Egypt",ChIJGVcnBefyRRQRNoQKHm9UAns,NAZAEL,26.6761327,31.4945887,1,,OK,"establishment,finance,point_of_interest,post_office"
338,APPROXIMATE,"Nazareth, Israel",ChIJ_w9s8XxOHBUR1l0nwTBbONI,NAZARETH,32.699635,35.303546,1,,OK,"locality,political"
339,,,,NAZELLI,,,0,,ZERO_RESULTS,
340,APPROXIMATE,"Nazareth, Israel",ChIJ_w9s8XxOHBUR1l0nwTBbONI,NAZERETH,32.699635,35.303546,1,,OK,"locality,political"
341,,,,NAZILLE,,,0,,ZERO_RESULTS,
342,APPROXIMATE,"Nazilli, Aydın Province, Turkey",ChIJYfbikuu4uBQRQSO-qgaftHo,NAZILLI,37.909777,28.324294,1,,OK,"locality,political"
343,,,,NAZIMOVAC,,,0,,ZERO_RESULTS,
344,,,,NAZIYAF,,,0,,ZERO_RESULTS,
345,GEOMETRIC_CENTER,"Nazli, Tavros 177 78, Greece",ChIJT336SPO8oRQRMKReGAFNXI0,NAZLI,37.9672844,23.6924851,1,177 78,OK,route
346,,,,NAZRAAT ABI,,,0,,ZERO_RESULTS,
347,APPROXIMATE,"Nazuka, Yamaga, Kumamoto Prefecture 861-0525, Japan",ChIJZeO_ihT-QDURMFutjZ2zjYc,NAZUGHA,33.0283771,130.7014967,1,861-0525,OK,"political,sublocality,sublocality_level_2"
348,,,,NCHAYLHA,,,0,,ZERO_RESULTS,
349,,,,NCHIR,,,0,,ZERO_RESULTS,
350,GEOMETRIC_CENTER,"Dalmacia, Providencia, Región Metropolitana, Chile",ChIJ8Zi-X4HPYpYRuVb4eaZ5HOM,NDALMACIA,-33.4443948,-70.6159535,3,,OK,route
351,APPROXIMATE,"Nebraska, USA",ChIJ7fwMtciNk4cRxArzDwyQJ6E,NE,41.4925374,-99.9018131,1,,OK,"administrative_area_level_1,political"
352,,,,NEADEY,,,0,,ZERO_RESULTS,
353,ROOFTOP,"Casa de Zamorca, 46198 Dos Aguas, Valencia, Spain",ChIJBzPpU70CYQ0RZVRK8aY4Y08,NEAMORAC,39.3076745,-0.7345147,1,46198,OK,premise
354,,,,NEAMOROC,,,0,,ZERO_RESULTS,
355,,,,NEBECHKE,,,0,,ZERO_RESULTS,
356,,,,NEBECK,,,0,,ZERO_RESULTS,
357,,,,NEBECKE,,,0,,ZERO_RESULTS,
358,GEOMETRIC_CENTER,"Nebek, La Cisterna, Región Metropolitana, Chile",ChIJOxY6b-baYpYRVZbni5r8eXc,NEBEFK,-33.51644539999999,-70.6594736,1,,OK,route
359,,,,NEBEH,,,0,,ZERO_RESULTS,
360,GEOMETRIC_CENTER,"Nebek, La Cisterna, Región Metropolitana, Chile",ChIJOxY6b-baYpYRVZbni5r8eXc,NEBEK,-33.51644539999999,-70.6594736,1,,OK,route
361,GEOMETRIC_CENTER,"Bhatiya, Gujarat 361315, India",ChIJZXKb7kSLVjkRKrpjY0RvcVI,NEBHA,22.0953186,69.2717643,1,361315,OK,"establishment,point_of_interest,store"
362,,,,NEBIR,,,0,,ZERO_RESULTS,
363,APPROXIMATE,"Nebk, Egypt",ChIJuePNjghSUxQRpGZROPfpP_0,NEBK,28.085495,34.43183,1,,OK,"locality,political"
364,GEOMETRIC_CENTER,"Unnamed Road, Rawalpindi, Pakistan",ChIJv8Sq8yaV3zgRFdl7lRUxIA8,NEBOSZJE,33.6420134,73.07244399999999,1,,OK,"establishment,point_of_interest,school"
365,,,,NECENCANI,,,0,,ZERO_RESULTS,
366,APPROXIMATE,"Negoslavci, Croatia",ChIJJ9q-4yKGXEcRcKTqY4Jm5II,NECESLAVCI,45.2781094,18.9972404,1,,OK,"locality,political"
367,APPROXIMATE,"Nechit, Romania",ChIJp-TBTMZTtUARpnHLCmRz5jE,NECHIR,46.771182,26.426188,1,,OK,"locality,political"
368,,,,NECHOR,,,0,,ZERO_RESULTS,
369,APPROXIMATE,"9224 Nedelica, Slovenia",ChIJo-Ig7Ek2b0cRcxTXCHQCjE4,NEDELICA,46.60975070000001,16.3395501,1,9224,OK,"locality,political"
370,APPROXIMATE,"40305, Nedelišće, Croatia",ChIJL92Y88qsaEcRENcrhlCtAAQ,NEDELISCE,46.3762896,16.3855166,1,40305,OK,"locality,political"
371,APPROXIMATE,"Sveta Nedelja, Croatia",ChIJ-d4OotHNZUcRl4vBOveauAE,NEDELJA,45.7967384,15.7762862,3,,OK,"locality,political"
372,APPROXIMATE,"40305, Nedelišće, Croatia",ChIJL92Y88qsaEcRENcrhlCtAAQ,NEDERISCE,46.3762896,16.3855166,1,40305,OK,"locality,political"
373,,,,NEDK,,,0,,ZERO_RESULTS,
374,APPROXIMATE,"Medsave, Croatia",ChIJB02m7vDOZUcRQinPMcv52Do,NEDSAVE,45.8328632,15.7693382,1,,OK,"locality,political"
375,,,,NEEBEK,,,0,,ZERO_RESULTS,
376,ROOFTOP,"NEF, 25 Parvati, Purandare Building, 2nd floor, Nilayam Bridge, Parvati Gaon, Parvati Paytha, Pune, Maharashtra 411009, India",ChIJF2Gd-g7AwjsRV-Nk9pGzbTE,NEF,18.4982818,73.8501076,2,411009,OK,premise
377,,,,NEFEK,,,0,,ZERO_RESULTS,
378,,,,NEGDA,,,0,,ZERO_RESULTS,
379,,,,NEGONJA,,,0,,ZERO_RESULTS,
380,,,,NEGOSLAVO,,,0,,ZERO_RESULTS,
381,,,,NEGOTI,,,0,,ZERO_RESULTS,
382,APPROXIMATE,"Negotin, Serbia",ChIJyx6Q8Py_U0cR9MoOnKs1kHk,NEGOTIN,44.2288747,22.5310674,1,,OK,"locality,political"
383,ROOFTOP,"600 E Main St, Cushing, OK 74023, USA",ChIJG3mS8fVpsYcRUtnTvUB63_8,NEIFEH,35.9854051,-96.7661718,1,74023,OK,"establishment,food,point_of_interest,restaurant"
384,,,,NEIG,,,0,,ZERO_RESULTS,
385,ROOFTOP,"701 E St Germain St, St Cloud, MN 56304, USA",ChIJTcQ1fYxgtFIR9Bj77avoGCM,NEIR,45.5688537,-94.1435266,1,56304,OK,"establishment,point_of_interest,school"
386,GEOMETRIC_CENTER,"20356, Klek, Croatia",ChIJa3SKjvOjSxMRad1VSkTbHFg,NEKUM KLEK,42.9393103,17.580657,1,20356,OK,"establishment,point_of_interest"
387,,,,NELCHLA HELON,,,0,,ZERO_RESULTS,
388,APPROXIMATE,"Veliki Bastaji, Croatia",ChIJJZvIiSCaZ0cR1js-qkFifFQ,NELIKI BASTAGI,45.6454102,17.3231189,1,,OK,"locality,political"
389,,,,NEM CENJA,,,0,,ZERO_RESULTS,
390,,,,NEM CRNJA,,,0,,ZERO_RESULTS,
391,,,,NEM CZMIA,,,0,,ZERO_RESULTS,
392,ROOFTOP,"9016 Mission Dr, Rosemead, CA 91770, USA",ChIJfcE2vo7awoARarLN9mR1rZM,NEM. CRNIA,34.0838674,-118.0727497,1,91770,OK,"establishment,food,point_of_interest,restaurant"
393,,,,NEM. CRNJA,,,0,,ZERO_RESULTS,
394,,,,NEM. CRUYA,,,0,,ZERO_RESULTS,
395,,,,NEM. CURJA,,,0,,ZERO_RESULTS,
396,,,,NEM.CRNJA,,,0,,ZERO_RESULTS,
397,APPROXIMATE,Germany,ChIJa76xwh5ymkcRW-WRjmtd6HU,NEMACKA,51.165691,10.451526,1,,OK,"country,political"
398,,,,NEMACKE CRNJE,,,0,,ZERO_RESULTS,
399,APPROXIMATE,"974 01 Nemce, Slovakia",ChIJwbqbIogWFUcRsIOXxtH3AAQ,NEMCE,48.7646331,19.1844937,1,974 01,OK,"locality,political"
400,,,,NEMCHAHIR,,,0,,ZERO_RESULTS,
401,APPROXIMATE,"Nevşehir, Nevşehir Merkez/Nevşehir, Turkey",ChIJgYH-ZkVuKhURbPWKyRs_1Vk,NEMCHEHIR,38.624694,34.714151,1,,OK,"locality,political"
402,,,,NEMEADCI,,,0,,ZERO_RESULTS,
403,ROOFTOP,"3131 12th St N, St Cloud, MN 56303, USA",ChIJLTjH5FpetFIRAuZOGcSxjpc,NEMETH,45.57335279999999,-94.195916,1,56303,OK,"dentist,establishment,health,point_of_interest"
404,,,,NEMIAOSI,,,0,,ZERO_RESULTS,
405,GEOMETRIC_CENTER,"Nemira, 407310, Romania",ChIJ49EkQT8bSUcRtbUvegN8C9A,NEMIRA,46.7519174,23.3560473,2,407310,OK,route
406,,,,NEMISHOMES,,,0,,ZERO_RESULTS,
407,ROOFTOP,"1001 Lafayette Dr, Farmington, PA 15437, USA",ChIJv82ZpGlINYgRgMU7P2hST58,NEMKOLNF,39.8047142,-79.55165099999999,1,15437,OK,"establishment,lodging,point_of_interest"
408,,,,NEMKOVICI,,,0,,ZERO_RESULTS,
409,,,,NEMMEK,,,0,,ZERO_RESULTS,
410,,,,NEN-NESTO,,,0,,ZERO_RESULTS,
411,APPROXIMATE,"51511, Nenadići, Croatia",ChIJR949wcBuY0cRmWLRIFKKKXg,NENADICI,45.07448249999999,14.4978785,1,51511,OK,"locality,political"
412,ROOFTOP,"Prospect House, 121 Lower St, Kettering NN16 8DN, UK",ChIJjyhByaqfd0gRhrgcApebDm8,NENEDIC,52.40111719999999,-0.7338064,1,NN16 8DN,OK,"doctor,establishment,health,point_of_interest"
413,APPROXIMATE,"Neor, Punjab 151206, India",ChIJtd4kdPy1EDkRYinPFG-qaaM,NEOR,30.4014952,75.056004,1,151206,OK,"locality,political"
414,,,,NEORIECSIN,,,0,,ZERO_RESULTS,
415,,,,NERADNOVCA,,,0,,ZERO_RESULTS,
416,APPROXIMATE,"9203 Neradnovci, Slovenia",ChIJ7TdeJUsfb0cRzaPgHaP0pu0,NERADNOVCI,46.8416752,16.1892242,1,9203,OK,"locality,political"
417,,,,NERANDOVICI,,,0,,ZERO_RESULTS,
418,APPROXIMATE,"43284, Hercegovac, Croatia",ChIJkZBIlnevZ0cRXicue7QRUEE,NERCEGOVAC,45.65604279999999,17.0105461,1,43284,OK,"locality,political"
419,,,,NEREAISEC,,,0,,ZERO_RESULTS,
420,,,,NERECI,,,0,,ZERO_RESULTS,
421,,,,NERECISCE,,,0,,ZERO_RESULTS,
422,ROOFTOP,"20 Prospect Ave # 800, Hackensack, NJ 07601, USA",ChIJ9zW4cor5wokRKiHIsVWldqI,NEREG,40.883453,-74.0571037,1,07601,OK,"establishment,health,point_of_interest"
423,,,,NEREGISE,,,0,,ZERO_RESULTS,
424,,,,NERESCIZE,,,0,,ZERO_RESULTS,
425,APPROXIMATE,"Nerežišća, Croatia",ChIJqUiZl5aCShMRcNArhlCtAAQ,NERESI,43.3312803,16.5752555,1,,OK,"locality,political"
426,APPROXIMATE,"Nerežišća, Croatia",ChIJqUiZl5aCShMRcNArhlCtAAQ,NERESISCA,43.3312803,16.5752555,1,,OK,"locality,political"
427,,,,NERESISCE,,,0,,ZERO_RESULTS,
428,,,,NERESISCHE,,,0,,ZERO_RESULTS,
429,,,,NERESISEE,,,0,,ZERO_RESULTS,
430,APPROXIMATE,"Neresnica, Serbia",ChIJWVycZAEVUUcRWQM1P3WWhAs,NERESRICIK,44.4158197,21.7739725,1,,OK,"locality,political"
431,,,,NERESZISCI,,,0,,ZERO_RESULTS,
432,APPROXIMATE,"51554, Nerezine, Croatia",ChIJKZjKamn9YkcROwJ5_xTEkic,NEREZICE,44.6568745,14.3952339,1,51554,OK,"locality,political"
433,APPROXIMATE,"51554, Nerezine, Croatia",ChIJKZjKamn9YkcROwJ5_xTEkic,NEREZICHE,44.6568745,14.3952339,1,51554,OK,"locality,political"
434,,,,NEREZIECE,,,0,,ZERO_RESULTS,
435,APPROXIMATE,"Nerežišća, Croatia",ChIJqUiZl5aCShMRcNArhlCtAAQ,NEREZIOCA,43.3312803,16.5752555,1,,OK,"locality,political"
436,APPROXIMATE,"Nerežišća, Croatia",ChIJqUiZl5aCShMRcNArhlCtAAQ,NEREZISCA,43.3312803,16.5752555,1,,OK,"locality,political"
437,APPROXIMATE,"Nerežišća, Croatia",ChIJqUiZl5aCShMRcNArhlCtAAQ,NEREZISCE,43.3312803,16.5752555,1,,OK,"locality,political"
438,APPROXIMATE,"Nerežišća, Croatia",ChIJqUiZl5aCShMRcNArhlCtAAQ,NEREZISCE',43.3312803,16.5752555,1,,OK,"locality,political"
439,APPROXIMATE,"Nerežišća, Croatia",ChIJqUiZl5aCShMRcNArhlCtAAQ,NEREZISCHT,43.3312803,16.5752555,1,,OK,"locality,political"
440,APPROXIMATE,"Nerežišća, Croatia",ChIJqUiZl5aCShMRcNArhlCtAAQ,NEREZUSCE,43.3312803,16.5752555,1,,OK,"locality,political"
441,,,,NERORICIC,,,0,,ZERO_RESULTS,
442,APPROXIMATE,"Ness Ziona, Israel",ChIJJbOI0Za2AhURJ70ufX-3YZo,NES-ZIOWA,31.932111,34.801327,1,,OK,"locality,political"
443,,,,NESEISTE,,,0,,ZERO_RESULTS,
444,,,,NESEK,,,0,,ZERO_RESULTS,
445,GEOMETRIC_CENTER,"Nesfield Pl, Raleigh, NC 27606, USA",ChIJH60mUxn1rIkR8uUAzxGz_xw,NESFELD,35.7560215,-78.6964671,1,27606,OK,route
446,,,,NESICE,,,0,,ZERO_RESULTS,
447,ROOFTOP,"165 Whitesport Dr SW, Huntsville, AL 35801, USA",ChIJhW2jojoTYogR9ohvNl-DVm0,NESIN,34.6944608,-86.569345,1,35801,OK,"establishment,health,physiotherapist,point_of_interest"
448,,,,NESPE,,,0,,ZERO_RESULTS,
449,APPROXIMATE,"Nestor, San Diego, CA 92154, USA",ChIJuT1Y8qpO2YARpiaMEAij-K8,NESTOR,32.568316,-117.0823502,1,92154,OK,"neighborhood,political"
450,ROOFTOP,"4, 475 10th Ave, New York, NY 10019, USA",ChIJ08HpPLNZwokR7kFWGLpJLjI,NESULA,40.7562724,-73.99852589999999,1,10019,OK,"establishment,point_of_interest"
451,,,,NETAIN,,,0,,ZERO_RESULTS,
452,GEOMETRIC_CENTER,"Zalaegerszeg, Bocskai István u., 8900 Hungary",ChIJMbXD-g0oaUcRpKUAuoDikmE,NETEN,46.84281060000001,16.8536844,1,8900,OK,"establishment,point_of_interest"
453,,,,NETEN ABU HAYA,,,0,,ZERO_RESULTS,
454,ROOFTOP,"2030 Utica Square, Tulsa, OK 74114, USA",ChIJ6Sz9SL_stocR8jcY5h2f5ao,NEU BANOCE,36.1317375,-95.96292489999999,1,74114,OK,"clothing_store,establishment,point_of_interest,shoe_store,store"
455,,,,NEU BANOVCE,,,0,,ZERO_RESULTS,
456,,,,NEU BANOVCI,,,0,,ZERO_RESULTS,
457,,,,NEU FUTAK,,,0,,ZERO_RESULTS,
458,,,,NEU FUTOG,,,0,,ZERO_RESULTS,
459,,,,NEU FUTOK,,,0,,ZERO_RESULTS,
460,,,,NEU PALANKA,,,0,,ZERO_RESULTS,
461,GEOMETRIC_CENTER,"nova 27, Ugrinovci 11277, Serbia",ChIJl1K9871cWkcR9fuWTo54Wro,NEU PAZOVA,44.8756119,20.1797503,1,11277,OK,route
462,,,,NEU URBAS,,,0,,ZERO_RESULTS,
463,,,,NEU VERBAS,,,0,,ZERO_RESULTS,
464,,,,NEU. VERBAS,,,0,,ZERO_RESULTS,
465,,,,NEUFUBAK,,,0,,ZERO_RESULTS,
466,,,,NEUKIRCHEN SLOV,,,0,,ZERO_RESULTS,
467,APPROXIMATE,"Neum, Bosnia and Herzegovina",ChIJZZ-yqrSjSxMROisXvjjjWgk,NEUM,42.9230437,17.6185727,1,,OK,"locality,political"
468,APPROXIMATE,"Neusatz, 77815 Bühl, Germany",ChIJU3gLJEcnl0cRAx0CiwFOXeA,NEUSATZ,48.6574284,8.1567828,1,77815,OK,"political,sublocality,sublocality_level_1"
469,APPROXIMATE,"Nevşehir, Turkey",ChIJFw1CMipjKhURR457eLLpFcs,NEUSEHIR,38.6939399,34.6856509,1,,OK,"administrative_area_level_1,political"
470,,,,NEUVERBASS,,,0,,ZERO_RESULTS,
471,,,,NEUWEBAS,,,0,,ZERO_RESULTS,
472,,,,NEUWERBAS,,,0,,ZERO_RESULTS,
473,APPROXIMATE,"Neuzina, Serbia",ChIJA8QZ4J-5WkcRCD0fRkc7K58,NEUZINA,45.3095119,20.7261064,1,,OK,"locality,political"
474,GEOMETRIC_CENTER,"Cheri Ln, Newport, MN 55055, USA",ChIJv-tSVizR94cRIXG57cFPeqg,NEV CHEIR,44.88406579999999,-92.9850323,3,55055,OK,route
475,APPROXIMATE,"Nevadhi, Uttar Pradesh 273413, India",ChIJSwxV_-VjkTkRt89q2qU864M,NEVADI,26.544459,83.522346,1,273413,OK,"locality,political"
476,,,,NEVASLA,,,0,,ZERO_RESULTS,
477,APPROXIMATE,"Nevşehir, Turkey",ChIJFw1CMipjKhURR457eLLpFcs,NEVCHEIER,38.6939399,34.6856509,1,,OK,"administrative_area_level_1,political"
478,,,,NEVCHEKIR,,,0,,ZERO_RESULTS,
479,APPROXIMATE,"6256 Neverke, Slovenia",ChIJkUSnGvc2e0cR0JZONU7MXh8,NEVERKE,45.6651016,14.1365712,1,6256,OK,"locality,political"
480,APPROXIMATE,"Nevesinje, Bosnia and Herzegovina",ChIJd9yOL-qhTBMR2I_NOtzLq8k,NEVESINE,43.2574658,18.1123652,1,,OK,"locality,political"
481,APPROXIMATE,"Nevesinje, Bosnia and Herzegovina",ChIJd9yOL-qhTBMR2I_NOtzLq8k,NEVESINJE,43.2574658,18.1123652,1,,OK,"locality,political"
482,ROOFTOP,"600 Delaware Ave #200, Bartlesville, OK 74003, USA",ChIJvY2kII4Tt4cRWhFXBP5TJz4,NEVI,36.7469693,-95.9727176,1,74003,OK,"establishment,health,point_of_interest"
483,ROOFTOP,"515 NE 106th St, Kansas City, MO 64155, USA",ChIJRT0H1cRZwIcR5gJ3Wv_P6ho,NEVMARK,39.2846805,-94.5725431,1,64155,OK,"establishment,point_of_interest,school"
484,APPROXIMATE,"Nevşehir, Nevşehir Merkez/Nevşehir, Turkey",ChIJgYH-ZkVuKhURbPWKyRs_1Vk,NEVSHEHIR,38.624694,34.714151,1,,OK,"locality,political"
485,ROOFTOP,"Appajappa Layout, Shampura, Kaval Bairasandra, Bengaluru, Karnataka 560032, India",ChIJQ77b-AsXrjsRXJTRHTfW2W8,NEW NESTO,13.0307405,77.6134486,2,560032,OK,"establishment,point_of_interest,premise"
486,,,,NEW PALANKA,,,0,,ZERO_RESULTS,
487,,,,NEW SIVATZ,,,0,,ZERO_RESULTS,
488,ROOFTOP,"44 Wall St # 12, New York, NY 10005, USA",ChIJI3aq-BZawokRRgMLuLW4OK8,NEZIMAC,40.7065487,-74.0094938,1,10005,OK,"establishment,point_of_interest"
489,,,,NHAMET,,,0,,ZERO_RESULTS,
490,,,,NICALITZ,,,0,,ZERO_RESULTS,
491,GEOMETRIC_CENTER,"W 22nd St, New York, NY 10010, USA",ChIJMU41gaNZwokRpHwqx7_MwEU,NICH,40.7399887,-73.9902696,1,10010,OK,"establishment,local_government_office,point_of_interest"
492,,,,NICHAYRI,,,0,,ZERO_RESULTS,
493,ROOFTOP,"48561 Alpha Dr # 100, Wixom, MI 48393, USA",ChIJGUyiSuioJIgR5f_myzpEN8o,NICHIA,42.498233,-83.529698,2,48393,OK,"establishment,point_of_interest"
494,ROOFTOP,"2703 Portage Bay E #1604, Davis, CA 95616, USA",ChIJY8eNZKApw4ARrQNzdpO43i4,NICKTICH,38.547686,-121.784147,1,95616,OK,"establishment,point_of_interest"
495,ROOFTOP,"〒277-0851 C, １-２４ 向原町 柏市 千葉県 277-0851, Japan",ChIJq6zGbOycGGARacd4c_d7ibQ,NICODEMIA,35.8611021,139.9609843,1,277-0851,OK,"establishment,point_of_interest"
496,,,,NICOMADEL,,,0,,ZERO_RESULTS,
497,GEOMETRIC_CENTER,"Nicomedes, El Limón, Jal., Mexico",ChIJJ0Xf-xipJYQR3w6gs2tE0w4,NICOMEDEL,19.8288887,-104.1533894,1,,OK,route
498,,,,NICOMEDI,,,0,,ZERO_RESULTS,
499,ROOFTOP,"〒277-0851 C, １-２４ 向原町 柏市 千葉県 277-0851, Japan",ChIJq6zGbOycGGARacd4c_d7ibQ,NICOMEDIA,35.8611021,139.9609843,1,277-0851,OK,"establishment,point_of_interest"
500,ROOFTOP,"〒277-0851 C, １-２４ 向原町 柏市 千葉県 277-0851, Japan",ChIJq6zGbOycGGARacd4c_d7ibQ,NICOMEDIE,35.8611021,139.9609843,1,277-0851,OK,"establishment,point_of_interest"
501,,,,NICOMEDIN,,,0,,ZERO_RESULTS,
502,,,,NICOMELIA,,,0,,ZERO_RESULTS,
503,ROOFTOP,"〒277-0851 C, １-２４ 向原町 柏市 千葉県 277-0851, Japan",ChIJq6zGbOycGGARacd4c_d7ibQ,NICOMIDIA,35.8611021,139.9609843,1,277-0851,OK,"establishment,point_of_interest"
504,,,,NICOMIDID,,,0,,ZERO_RESULTS,
505,,,,NICOMIDIE,,,0,,ZERO_RESULTS,
506,,,,NICOMIDION,,,0,,ZERO_RESULTS,
507,APPROXIMATE,"Nikopol', Dnipropetrovsk Oblast, Ukraine",ChIJx07vBnCj3EARxGnU1ZHPOzY,NICOPOL,47.56746,34.394815,1,,OK,"locality,political"
508,,,,NICSICH,,,0,,ZERO_RESULTS,
509,,,,NIDE,,,0,,ZERO_RESULTS,
510,ROOFTOP,"3904 Liberty Bell Rd, Fort Scott, KS 66701, USA",ChIJh-fy5iaix4cR1XD3pEwhuto,NIECE,37.79823220000001,-94.7011275,2,66701,OK,"establishment,general_contractor,point_of_interest"
511,GEOMETRIC_CENTER,"Rue de Nieffern, 67370 Berstett, France",ChIJP5bJwhK5lkcR14oLo1tOWgg,NIEFFERN,48.6774418,7.662361400000001,1,67370,OK,route
512,ROOFTOP,"50, Weston St, Pilkhana, Kolkata, West Bengal 700012, India",ChIJe7kG1Kh3AjoRJf38qmjG1m4,NIEGUS,22.569433,88.3552143,1,700012,OK,"establishment,point_of_interest"
513,APPROXIMATE,Germany,ChIJa76xwh5ymkcRW-WRjmtd6HU,NIEMCI,51.165691,10.451526,1,,OK,"country,political"
514,,,,NIEMENCI,,,0,,ZERO_RESULTS,
515,ROOFTOP,"Kruidenhof 20, 1112 PS Diemen, Netherlands",ChIJyclX7_oLxkcR6xhTIuzK8xo,NIENICI,52.3339046,4.957279199999999,1,1112 PS,OK,"establishment,liquor_store,point_of_interest,store"
516,APPROXIMATE,"Nigde, Niğde Merkez/Niğde, Turkey",ChIJYe0iW-bnKRURb6vwEMG2RuY,NIGDE,37.969774,34.676608,1,,OK,"locality,political"
517,,,,NIGDEH,,,0,,ZERO_RESULTS,
518,,,,NIGEMEI,,,0,,ZERO_RESULTS,
519,ROOFTOP,"5225 Wisconsin Ave NW #402, Washington, DC 20015, USA",ChIJ379KpJbJt4kRya1lj2-in0k,NIHA,38.958361,-77.084131,1,20015,OK,"establishment,health,point_of_interest"
520,APPROXIMATE,"Niha, Lebanon",ChIJO-ulEZPeHhURXr_o9FWhE8U,NIHA CHAUF,33.5954973,35.6241194,1,,OK,"locality,political"
521,APPROXIMATE,"Donji Miholjac, Croatia",ChIJw06ohTNHXUcR5Y7X1FKPF4I,NIHOLJAC,45.762142,18.1651379,1,,OK,"locality,political"
522,APPROXIMATE,"Nijemci, Croatia",ChIJi72yhpB5XEcREM4rhlCtAAQ,NIJEMCI,45.1399134,19.0356088,1,,OK,"locality,political"
523,,,,NIJEMEI,,,0,,ZERO_RESULTS,
524,,,,NIJENICI,,,0,,ZERO_RESULTS,
525,APPROXIMATE,"Nijran, Syria",ChIJIxCGJF17GRUR9I3FKJq85u4,NIJRAN,32.8405057,36.4499628,1,,OK,"locality,political"
526,,,,NIKCHITEH,,,0,,ZERO_RESULTS,
527,APPROXIMATE,"Nicaea, İznik/Bursa, Turkey",ChIJ9WR4XcALyxQRyL4yhMV3thc,NIKEA,40.429524,29.719743,2,,OK,"locality,political"
528,APPROXIMATE,"Nikinci, Serbia",ChIJS82qH6VMWkcRKP5KcaOw08A,NIKINCI,44.8237819,19.8828847,1,,OK,"locality,political"
529,,,,NIKINKI,,,0,,ZERO_RESULTS,
530,,,,NIKLITHE,,,0,,ZERO_RESULTS,
531,,,,NIKOHITCH,,,0,,ZERO_RESULTS,
532,,,,NIKOHITEL,,,0,,ZERO_RESULTS,
533,ROOFTOP,"1130 S 3800 W, Salt Lake City, UT 84104, USA",ChIJd_03Iw7zUocR6iHQpdF66YM,NIKOLA,40.7448111,-111.9838278,1,84104,OK,"establishment,point_of_interest"
534,APPROXIMATE,"Mykolaiv, Mykolaivs'ka oblast, Ukraine, 54000",ChIJ1RNy-4nLxUARgFbgufo5Dpc,NIKOLAJEV,46.975033,31.99458289999999,2,54000,OK,"locality,political"
535,APPROXIMATE,"692 01 Mikulov, Czechia",ChIJJZYcsDfNEkcRwHIVZg-vAAQ,NIKOLIBURG,48.805283,16.6376881,1,692 01,OK,"locality,political"
536,,,,NIKOLINI,,,0,,ZERO_RESULTS,
537,,,,NIKOMIDIA,,,0,,ZERO_RESULTS,
538,,,,NIKOMIDION,,,0,,ZERO_RESULTS,
539,APPROXIMATE,"Nicopolis 481 00, Greece",ChIJKxqwHxI_XBMRQOS64iy9AAU,NIKOPOLIS,39.0263649,20.7336358,1,481 00,OK,"locality,political"
540,APPROXIMATE,"Niksic, Montenegro",ChIJyTbsbqupTRMRWIVzgA-pxxQ,NIKSIC,42.7804735,18.9561661,1,,OK,"locality,political"
541,,,,"NIKSIC, (ZAGREB)",,,0,,ZERO_RESULTS,
542,,,,NIKSICH,,,0,,ZERO_RESULTS,
543,APPROXIMATE,"Niksic, Montenegro",ChIJyTbsbqupTRMRWIVzgA-pxxQ,NIKSIK,42.7804735,18.9561661,1,,OK,"locality,political"
544,APPROXIMATE,"Crikvenica, Croatia",ChIJA1I1goF7Y0cRKZ5ZJrT-tQo,NIKVENICA,45.173583,14.6915049,1,,OK,"locality,political"
545,,,,NIMCICEVO,,,0,,ZERO_RESULTS,
546,APPROXIMATE,"Nimes, France",ChIJOVPo1gsttBIRAwwgn08TiN4,NIMES,43.836699,4.360054,1,,OK,"locality,political"
547,APPROXIMATE,"Nimra, West Bengal 731302, India",ChIJ-z9CBm2V-TkRLHn8Zj_KE90,NIMRA,23.7711637,87.88320399999999,1,731302,OK,"locality,political"
548,ROOFTOP,"18700 E 191st St, Pleasant Hill, MO 64080, USA",ChIJsalD0JgnwYcReX4ny1vPg_4,NINCECERA,38.774771,-94.379108,1,64080,OK,"car_dealer,establishment,point_of_interest,store"
549,APPROXIMATE,"Niseko, Abuta District, Hokkaido, Japan",ChIJo1x_xZGuCl8RrJLxQh149XE,NINCEWKO,42.8047045,140.6874931,1,,OK,"locality,political"
550,,,,NINCHIC EVO,,,0,,ZERO_RESULTS,
551,GEOMETRIC_CENTER,"R. Cícero B Siqueira, São José do Egito - PE, 56700-000, Brazil",ChIJqSXLweCnqAcRFAJ1jU5gt1k,NINCICERO,-7.482837999999999,-37.2751742,2,56700-000,OK,route
552,GEOMETRIC_CENTER,"Samachar Bhawan, 5 Press Complex, Adjacent to dainik Bhaskar, AB Road, Press Complex, Indore, Madhya Pradesh 452010, India",ChIJSfh07E39YjkRcYiDAG6tqG0,NINCICEVE,22.737708,75.892258,1,452010,OK,"establishment,point_of_interest,school"
553,APPROXIMATE,"Minićevo, Serbia",ChIJB4K83Q9oVEcRKWI81CvrDOk,NINCICEVO,43.6902926,22.2904665,1,,OK,"locality,political"
554,,,,NINCIERO,,,0,,ZERO_RESULTS,
555,ROOFTOP,"R. Volta Redonda, 205 - Campo Belo, São Paulo - SP, 04608-010, Brazil",ChIJqY8WAwFQzpQRWJi_NQ90W88,NINCISEVO,-23.6242137,-46.67590939999999,1,04608-010,OK,"establishment,point_of_interest"
556,GEOMETRIC_CENTER,"Ninguno, La Victoria 15033, Peru",ChIJRcTav5TIBZERZ43PoxTC6EE,NINGUNO,-12.0663543,-77.02232769999999,2,15033,OK,route
557,,,,NINICERO,,,0,,ZERO_RESULTS,
558,,,,NINTCHITCHEVO,,,0,,ZERO_RESULTS,
559,,,,NIOVI SAI,,,0,,ZERO_RESULTS,
560,,,,NIPEMCI,,,0,,ZERO_RESULTS,
561,,,,NIRAMORUK,,,0,,ZERO_RESULTS,
562,ROOFTOP,"9. бригаде, 9. Brigade 10, Niš 18000, Serbia",ChIJtzNZ1LywVUcRl_QBGeAukOc,NIROSI,43.3131413,21.9075108,1,18000,OK,"establishment,hospital,point_of_interest"
563,APPROXIMATE,"Nizels, Tonbridge TN11 8NU, UK",ChIJq6lBPjZO30cRAdcD5KCFxCI,NIRZELZ,51.2309879,0.2134508,1,TN11 8NU,OK,"locality,political"
564,APPROXIMATE,"Niš, Serbia",ChIJZR_IQMKwVUcRzcMqEuOfMVY,NIS,43.3209022,21.8957589,1,,OK,"locality,political"
565,APPROXIMATE,"Niš, Serbia",ChIJZR_IQMKwVUcRzcMqEuOfMVY,NIS.,43.3209022,21.8957589,1,,OK,"locality,political"
566,ROOFTOP,"428 Fremont Rd, Port Clinton, OH 43452, USA",ChIJKYLuBlWyO4gRCxBPJBYRZb0,NISCH,41.5094575,-82.9479787,1,43452,OK,"establishment,lawyer,point_of_interest"
567,,,,NISCIC,,,0,,ZERO_RESULTS,
568,ROOFTOP,"1301 E Admiral Doyle Dr, New Iberia, LA 70560, USA",ChIJ7bwurL-CI4YRkxYMSjD3v3s,NISH,29.9832592,-91.811784,1,70560,OK,"establishment,point_of_interest,school"
569,APPROXIMATE,"Naisiai, Lithuania",ChIJCe2HPbQA5kYRN7JRlL69mtk,NISIAI,56.0214919,23.5147719,1,,OK,"locality,political"
570,ROOFTOP,"48561 Alpha Dr # 100, Wixom, MI 48393, USA",ChIJGUyiSuioJIgR5f_myzpEN8o,NISICHIA,42.498233,-83.529698,2,48393,OK,"establishment,point_of_interest"
571,APPROXIMATE,"Niksic, Montenegro",ChIJyTbsbqupTRMRWIVzgA-pxxQ,NISKIC,42.7804735,18.9561661,1,,OK,"locality,political"
572,GEOMETRIC_CENTER,"Bulevar Svetog cara Konstantina Rd, Niš, Serbia",ChIJxyyPhhuwVUcRYMSSGVDdlfo,NISSAL,43.3016836,21.9783132,1,,OK,"establishment,point_of_interest"
573,,,,NISSOF,,,0,,ZERO_RESULTS,
574,GEOMETRIC_CENTER,"Nita, Pinckney, MI 48169, USA",ChIJs0U1lIlKI4gR5disvHcP1Ho,NITA,42.42731570000001,-83.9167946,1,48169,OK,route
575,GEOMETRIC_CENTER,"B-105, Sri Datta Nilayam,, Sec-12, Kharghar, Sector 12, Kharghar, Navi Mumbai, Maharashtra 410210, India",ChIJYy8KdxfC5zsRsotjX6pEZw4,NITIA,19.044679,73.06728400000001,1,410210,OK,"establishment,point_of_interest"
576,ROOFTOP,"Nithin, 305 A.B Thendral Nagar eachanari post, Eachanari - Madukkarai Rd, Eachanari, Coimbatore, Tamil Nadu 641021, India",ChIJiXPEcPFaqDsR4sD7mpemPfA,NITIN,10.9183048,76.9804851,1,641021,OK,premise
577,APPROXIMATE,"Nitra, Slovakia",ChIJ_ZNlVeA-a0cR8IuXxtH3AAQ,NITRA,48.3061414,18.076376,1,,OK,"locality,political"
578,GEOMETRIC_CENTER,"9/10, Kunj Society, Alkapuri, Chhani Jakatnaka, Vadodara, Gujarat 390007, India",ChIJJ4WPPbHIXzkRrRT7b5WNEII,NITRITE,22.3483517,73.17402369999999,1,390007,OK,"establishment,point_of_interest"
579,ROOFTOP,"2401 Utah Ave S # 305, Seattle, WA 98134, USA",ChIJP_1xECZAkFQRgCui4rTQ92c,NITZE,47.5810044,-122.3358992,1,98134,OK,"establishment,point_of_interest"
580,ROOFTOP,"33 Winfield St, Worcester, MA 01610, USA",ChIJ-yQuQIUG5IkRCrFUxLcfO6k,NIUCIVERO,42.25954,-71.820116,1,01610,OK,"establishment,point_of_interest"
581,,,,NIVI URAS,,,0,,ZERO_RESULTS,
582,APPROXIMATE,"Navlakha, Indore, Madhya Pradesh 452001, India",ChIJ1TnXYeD8YjkRlnePcSFr3yo,NIVLAKA,22.6986585,75.88171609999999,1,452001,OK,"political,sublocality,sublocality_level_1"
583,GEOMETRIC_CENTER,"Nixie Way, San Diego, CA 92147, USA",ChIJtUL1bgqr3oARWnR51F43e84,NIXIE,32.7258385,-117.2200107,1,92147,OK,route
584,APPROXIMATE,"Niz, Vologda Oblast, Russia, 162403",ChIJg1msrTvIukYRfLX_PjiLzJw,NIZ,59.2104106,35.7002205,7,162403,OK,"locality,political"
585,GEOMETRIC_CENTER,"Ul. Niče Vilka, 43290, Grubišno Polje, Croatia",ChIJySybe5q8Z0cRchmYujr3w-o,NIZE POLJE,45.7013385,17.1762431,1,43290,OK,route
586,,,,NIZEPOLJE,,,0,,ZERO_RESULTS,
587,,,,NIZNY KEKED,,,0,,ZERO_RESULTS,
588,,,,NIZTA,,,0,,ZERO_RESULTS,
589,APPROXIMATE,"Njeguši, Montenegro",ChIJS7Nf1LjMTRMRKkr8YKO28bc,NJEGNOSI,42.4337817,18.8102186,1,,OK,"locality,political"
590,APPROXIMATE,"Njeguši, Montenegro",ChIJS7Nf1LjMTRMRKkr8YKO28bc,NJEGUSI,42.4337817,18.8102186,1,,OK,"locality,political"
591,,,,NJELOWA,,,0,,ZERO_RESULTS,
592,APPROXIMATE,"Nyírbátor, 4300 Hungary",ChIJfSmWgWWAR0cRFslruiY4IEo,NJIRBATORR,47.8390013,22.130818,1,4300,OK,"locality,political"
593,,,,NJIREGHESE,,,0,,ZERO_RESULTS,
594,APPROXIMATE,"2325 Njiverce, Slovenia",ChIJO3sgCL9jb0cRcweIcCzQ2SU,NJIVERCE,46.4039082,15.8110329,1,2325,OK,"locality,political"
595,,,,NJUBOTNYA,,,0,,ZERO_RESULTS,
596,,,,NJURDJEWE,,,0,,ZERO_RESULTS,
597,,,,NKIB,,,0,,ZERO_RESULTS,
598,GEOMETRIC_CENTER,"Avenida Lázaro Cárdenas 900 Int. A, Valle Oriente, 66869 Monterrey, N.L., Mexico",ChIJbWUwrVq-YoYR-Qu6FgAbvlo,NKICANIA,25.639718,-100.316691,1,66869,OK,"amusement_park,establishment,point_of_interest"
599,APPROXIMATE,"Nata, Botswana",ChIJ10CgTPE8TRkRpiuHQqPt7Lc,NLATO,-20.2105223,26.1772994,2,,OK,"locality,political"
600,,,,NLRDIFE,,,0,,ZERO_RESULTS,
601,APPROXIMATE,"42313 Recuerda, Soria, Spain",ChIJpd_Np5mORA0RHyhFeeTQGX4,NO RECUERDA,41.4743028,-2.9944332,1,42313,OK,"locality,political"
602,,,,NOBLISIO,,,0,,ZERO_RESULTS,
603,,,,NOCHEHER,,,0,,ZERO_RESULTS,
604,APPROXIMATE,"70015 Noci, Metropolitan City of Bari, Italy",ChIJx9M98CGwRxMRcBfv9qZyCgo,NOCI,40.793902,17.1258599,1,70015,OK,"locality,political"
605,,,,NOCONODIL,,,0,,ZERO_RESULTS,
606,,,,NODALI,,,0,,ZERO_RESULTS,
607,APPROXIMATE,"Nadalj, Serbia",ChIJC1LLhew5W0cRvkCZkz7BezU,NODALJ,45.5096935,19.922858,1,,OK,"locality,political"
608,,,,NOHEK HOMS,,,0,,ZERO_RESULTS,
609,ROOFTOP,"14500 S Broadway, Gardena, CA 90248, USA",ChIJUS3QGe7KwoARj2q-Ycp0p-M,NOHIR,33.900349,-118.277735,1,90248,OK,"establishment,point_of_interest"
610,,,,NOIBODINA,,,0,,ZERO_RESULTS,
611,GEOMETRIC_CENTER,"Atlanta, GA 30303, USA",ChIJE6Z99XgE9YgRqdymdZPj-3k,NOIR,33.7600308,-84.3883791,1,30303,OK,"establishment,point_of_interest"
612,GEOMETRIC_CENTER,"M. Manojlovića, Prijedor, Bosnia and Herzegovina",ChIJacWlQFgzZ0cREfJOc2l9ZK4,NOJLOVICA,44.9823782,16.7233235,1,,OK,route
613,APPROXIMATE,"21300, Makarska, Croatia",ChIJI9tSiW7uShMRm6UAREtFIqk,NOKARSKA,43.2937769,17.0215239,1,21300,OK,"locality,political"
614,,,,NOKEVO,,,0,,ZERO_RESULTS,
615,,,,NOKOV,,,0,,ZERO_RESULTS,
616,GEOMETRIC_CENTER,"801, 8th Floor, ITL Twin Towers, B-09, Netaji Subhash Place, Opp.Wazirpur District Centre, Pitampura, Sushant Lok Phase 1, Minto Bridge Colony, Barakhamba, New Delhi, Delhi 110034, India",ChIJd-3rnjD9DDkRvINJ2j-F-tQ,NOKRIC,28.635308,77.22496,1,110034,OK,"establishment,point_of_interest"
617,GEOMETRIC_CENTER,"801, 8th Floor, ITL Twin Towers, B-09, Netaji Subhash Place, Opp.Wazirpur District Centre, Pitampura, Sushant Lok Phase 1, Minto Bridge Colony, Barakhamba, New Delhi, Delhi 110034, India",ChIJd-3rnjD9DDkRvINJ2j-F-tQ,NOKRIN,28.635308,77.22496,1,110034,OK,"establishment,point_of_interest"
618,APPROXIMATE,"Nome, AK, USA",ChIJeVU4FigaMVcRTIR2WHExdUE,NOME,64.5011111,-165.4063889,1,,OK,"locality,political"
619,GEOMETRIC_CENTER,"Nomex Gate, Whiting, ME 04691, USA",ChIJV5ckDAzJqEwROqwvdbxXCnY,NOMEJ,44.7906293,-67.33113589999999,1,04691,OK,route
620,ROOFTOP,"946-2 Yamamiya, Fujinomiya-shi, Shizuoka-ken 418-0111, Japan",ChIJUU3cltfQG2ARfRh-ZKiPqdQ,NOMEL,35.2605879,138.6298722,1,418-0111,OK,"establishment,point_of_interest"
621,APPROXIMATE,"4264 Nomenj, Slovenia",ChIJX5a8pTyTekcR_uEoFjfVrXY,NOMENJ,46.2924157,14.0062683,1,4264,OK,"locality,political"
622,APPROXIMATE,"54610 Nomeny, France",ChIJ5aYJ47XqlEcRoPU6mrlfCgQ,NOMENY,48.889691,6.225187999999999,1,54610,OK,"locality,political"
623,,,,NOMINADE,,,0,,ZERO_RESULTS,
624,APPROXIMATE,"10060 None, Metropolitan City of Turin, Italy",ChIJC-R5UwIXiEcRERpdyS0ljOM,NONE,44.9334927,7.5407494,1,10060,OK,"locality,political"
625,,,,NONOSTOR,,,0,,ZERO_RESULTS,
626,,,,NONTOS,,,0,,ZERO_RESULTS,
627,,,,NOOGSETO,,,0,,ZERO_RESULTS,
628,,,,NOPOVACA,,,0,,ZERO_RESULTS,
629,APPROXIMATE,"Koprivnica, Croatia",ChIJR4ExGgMnZkcRCa8lmwQ6BL4,NOPRIVNIKA,46.1639381,16.8334753,1,,OK,"locality,political"
630,APPROXIMATE,"Nora, IL, USA",ChIJ41DLTMADCIgRfzQKIKfhMfA,NORA,42.4558425,-89.9454009,7,,OK,"locality,political"
631,APPROXIMATE,"Nord Department, Haiti",ChIJs8fY3gLHto4RE_Or3ZYIAEs,NORD,19.5687715,-72.189,7,,OK,"administrative_area_level_1,political"
632,,,,NORD BARHALYOUN,,,0,,ZERO_RESULTS,
633,,,,NORDILI,,,0,,ZERO_RESULTS,
634,,,,NORE FULOG,,,0,,ZERO_RESULTS,
635,ROOFTOP,"Teletie 2, 96100 Rovaniemi, Finland",ChIJiahXmApLK0QRHt_2Va5luDg,NORECA,66.4969813,25.6572605,1,96100,OK,"establishment,point_of_interest"
636,APPROXIMATE,"Novi Sad, Serbia",ChIJVTTpPWEQW0cRKP4kN2h9bws,NORI SAD,45.2671352,19.8335496,1,,OK,"locality,political"
637,,,,NORIJULOG,,,0,,ZERO_RESULTS,
638,APPROXIMATE,"Kula Norinska, Croatia",ChIJIWu6cJwJSxMRQNUrhlCtAAQ,NORINSKA,43.0310887,17.603429,1,,OK,"locality,political"
639,,,,NORISAD,,,0,,ZERO_RESULTS,
640,,,,NORJEVAC,,,0,,ZERO_RESULTS,
641,ROOFTOP,"2499 Glades Rd, Boca Raton, FL 33431, USA",ChIJPwPXYHEe2YgR4S7q_J6Gnls,NORKIN,26.3695353,-80.1370742,1,33431,OK,"dentist,doctor,establishment,health,point_of_interest"
642,,,,NOROSELO,,,0,,ZERO_RESULTS,
643,ROOFTOP,"1625 County Rd 39, Southampton, NY 11968, USA",ChIJfc1VKTmT6IkR9OhaWyw5-ys,NORSIC,40.8957562,-72.4526538,1,11968,OK,"establishment,point_of_interest"
644,GEOMETRIC_CENTER,"North Rd, Shanklin PO37 6DE, UK",ChIJZ5TW1sqLdEgRJOKs0oUPt5A,NORTS. OTOK,50.6314317,-1.1763896,3,PO37 6DE,OK,route
645,,,,NORVSAD,,,0,,ZERO_RESULTS,
646,APPROXIMATE,"Nos Kalik, Croatia",ChIJVd_CHWgyNRMRlm_7mLQJykw,NOS KALIK,43.8178122,15.9913725,1,,OK,"locality,political"
647,APPROXIMATE,"Nos Kalik, Croatia",ChIJVd_CHWgyNRMRlm_7mLQJykw,NOS-KALIK,43.8178122,15.9913725,1,,OK,"locality,political"
648,,,,NOSAVIKA,,,0,,ZERO_RESULTS,
649,,,,NOSCOVCI,,,0,,ZERO_RESULTS,
650,APPROXIMATE,"33523, Noskovci, Croatia",ChIJcXm0FuJeXUcRGcCelfhmRsU,NOSKOVCI,45.7821411,17.8183379,1,33523,OK,"locality,political"
651,ROOFTOP,"93 Main St #13, Andover, MA 01810, USA",ChIJiZRN9YsI44kRaolUW24P0Uk,NOSTAR,42.6537684,-71.1391852,1,01810,OK,"establishment,point_of_interest"
652,,,,NOTICIEN,,,0,,ZERO_RESULTS,
653,ROOFTOP,"55 New Montgomery St #420, San Francisco, CA 94105, USA",ChIJ1wtjo2KAhYARNJAbqdEJmKs,NOTOR,37.78815489999999,-122.4011109,1,94105,OK,"establishment,health,point_of_interest"
654,GEOMETRIC_CENTER,"Kon/nou ke Elenis, Vasilies 715 00, Greece",ChIJWcuugl5YmhQRCJOHnvdCaoY,NOUAKI,35.2747746,25.1354609,2,715 00,OK,route
655,,,,NOUGARD,,,0,,ZERO_RESULTS,
656,,,,NOV- FUTOK,,,0,,ZERO_RESULTS,
657,ROOFTOP,"6699 Springfield Center Dr, Springfield, VA 22150, USA",ChIJJ5Y97EOtt4kR9soPgs3mmF0,NOVA,38.7636242,-77.1764149,1,22150,OK,"establishment,point_of_interest,university"
658,APPROXIMATE,"Nova Bukovica, Croatia",ChIJmdOEr19hXUcR9cumXpzTWW8,NOVA BUKOVICA,45.6614966,17.7716714,1,,OK,"locality,political"
659,GEOMETRIC_CENTER,"Bukovina, 968 01 Nová Baňa, Slovakia",ChIJATYiFgnWakcRdBT_9L5g-2k,NOVA BUKOVINA,48.4135366,18.5918961,1,968 01,OK,route
660,APPROXIMATE,"Nova Crnja, Serbia",ChIJS8eIvEguRUcRi5ldP1ZtxAc,NOVA CRNJA,45.6485551,20.56913,1,,OK,"locality,political"
661,APPROXIMATE,"Nova Belém, Afonso Cunha - MA, 65505-000, Brazil",ChIJ64Wzc4BZjAcRPvNvNUM9hFQ,NOVA CUNJA,-4.233333,-43.366667,10,65505-000,OK,"locality,political"
662,,,,NOVA FUTEK,,,0,,ZERO_RESULTS,
663,,,,NOVA GADJDEHA,,,0,,ZERO_RESULTS,
664,APPROXIMATE,"Nova Gajdobra, Serbia",ChIJm7nlYA5lW0cRpJCPnCaqqbI,NOVA GAJDOBRA,45.3260608,19.4330546,1,,OK,"locality,political"
665,APPROXIMATE,"35400, Nova Gradiška, Croatia",ChIJdbWN_p5hZ0cRUMYrhlCtAAQ,NOVA GIADISKA,45.2581558,17.3839626,1,35400,OK,"locality,political"
666,APPROXIMATE,"35400, Nova Gradiška, Croatia",ChIJdbWN_p5hZ0cRUMYrhlCtAAQ,NOVA GRAD,45.2581558,17.3839626,1,35400,OK,"locality,political"
667,APPROXIMATE,"35400, Nova Gradiška, Croatia",ChIJdbWN_p5hZ0cRUMYrhlCtAAQ,NOVA GRADIS,45.2581558,17.3839626,1,35400,OK,"locality,political"
668,APPROXIMATE,"35400, Nova Gradiška, Croatia",ChIJdbWN_p5hZ0cRUMYrhlCtAAQ,NOVA GRADISKA,45.2581558,17.3839626,1,35400,OK,"locality,political"
669,ROOFTOP,"1648 Ogden Ave, Downers Grove, IL 60515, USA",ChIJI0NQ_utRDogRb5Z_OCNqstg,NOVA K.,41.8085586,-88.0269369,1,60515,OK,"car_repair,establishment,point_of_interest"
670,,,,NOVA KANGOZ,,,0,,ZERO_RESULTS,
671,GEOMETRIC_CENTER,"Nova ulica, 2212 Šentilj v Slov. goricah, Slovenia",ChIJY7h-LOWfb0cR3l27KZ9mN7E,NOVA KANIZA,46.6735765,15.6509308,3,2212,OK,route
672,GEOMETRIC_CENTER,"6.Nova, Čantavir, Serbia",ChIJ4cXiur2mREcRladdFlMO-qo,NOVA KANJIZA,45.9308309,19.7665605,1,,OK,route
673,,,,NOVA KANZIA,,,0,,ZERO_RESULTS,
674,APPROXIMATE,"35410, Nova Kapela, Croatia",ChIJT1M26DiSXUcR9AAFRw6ze70,NOVA KAPELA,45.195653,17.6433469,1,35410,OK,"locality,political"
675,GEOMETRIC_CENTER,"Nova, Smederevska Palanka, Serbia",ChIJ3y5thQbPUEcRRipKLvi9tA8,NOVA PALANKA,44.3698213,20.9611965,1,,OK,route
676,APPROXIMATE,"Nova Pazova, Serbia",ChIJcefSacdeWkcRYr14V2u_4LI,NOVA PAZOVA,44.9442659,20.2192192,1,,OK,"locality,political"
677,APPROXIMATE,"43272, Nova Rača, Croatia",ChIJR0RLxBO0Z0cRcMArhlCtAAQ,NOVA RACA,45.7995397,16.9535804,1,43272,OK,"locality,political"
678,GEOMETRIC_CENTER,"130 East 77th Street, Black Hall, 9th Floor, New York, NY 10075, USA",ChIJra13dJVYwokRZcpOj-iJm60,NOVA RAZA,40.77372949999999,-73.9607509,1,10075,OK,"doctor,establishment,health,point_of_interest"
679,APPROXIMATE,"1336 Nova Sela, Slovenia",ChIJXaRa9veMZEcR7VibDEPfYSQ,NOVA SELA,45.5056405,14.887785,1,1336,OK,"locality,political"
680,APPROXIMATE,"Nova Subocka, Croatia",ChIJKXxvHrARZ0cRYOL7cjer1CM,NOVA SUBOCKA,45.3718059,16.9214042,1,,OK,"locality,political"
681,ROOFTOP,"5936 Peachtree Rd, Chamblee, GA 30341, USA",ChIJTRxXysAJ9YgR0GZIYS88eLs,NOVA T(INC),33.904225,-84.2901067,1,30341,OK,"establishment,point_of_interest"
682,APPROXIMATE,"1385 Nova Vas, Slovenia",ChIJkb5-plzQZEcRKQmOcERgGHU,NOVA VAS,45.7727262,14.5064925,1,1385,OK,"locality,political"
683,APPROXIMATE,"250 63 Nová Ves, Czechia",ChIJIyQOstHuC0cRwIkVZg-vAAQ,NOVA VES,50.2192239,14.5356388,4,250 63,OK,"locality,political"
684,,,,NOVA-GRUJA,,,0,,ZERO_RESULTS,
685,APPROXIMATE,"Nova Crnja, Serbia",ChIJS8eIvEguRUcRi5ldP1ZtxAc,NOVACRNJA,45.6485551,20.56913,1,,OK,"locality,political"
686,ROOFTOP,"53 Nautilus Dr Ste 201, Stafford Township, NJ 08050, USA",ChIJ1xy6CZ8IwYkRUdIgWI-sWas,NOVADO,39.7186945,-74.2849335,1,08050,OK,"doctor,establishment,health,point_of_interest"
687,,,,NOVAHONIC,,,0,,ZERO_RESULTS,
688,APPROXIMATE,"Novak, SD 57759, USA",ChIJQ3hjrmNVLVMRMxmjVoKwUR4,NOVAK,44.2163745,-103.5518577,1,57759,OK,"locality,political"
689,GEOMETRIC_CENTER,"Bač 21420, Serbia",ChIJ68E9SLOdXEcRq6XSOgSyuEc,NOVAK MALI,45.3894538,19.2318402,1,21420,OK,"establishment,point_of_interest,premise"
690,APPROXIMATE,"Novaki, Croatia",ChIJzVuew_zNZUcRs0Iyp_JWwOc,NOVAKI,45.7958742,15.8014816,1,,OK,"locality,political"
691,APPROXIMATE,"Novakovec, Croatia",ChIJdb1csSCxaEcRqUdYN_5RUcs,NOVAKOVEC,46.4552276,16.5690173,1,,OK,"locality,political"
692,APPROXIMATE,"Novalja, Croatia",ChIJfwWkTylKYkcRbk0ByIFuna0,NOVALIJA,44.5561811,14.8854242,1,,OK,"locality,political"
693,APPROXIMATE,"Novalja, Croatia",ChIJfwWkTylKYkcRbk0ByIFuna0,NOVALJA,44.5561811,14.8854242,1,,OK,"locality,political"
694,,,,NOVALKO,,,0,,ZERO_RESULTS,
695,,,,NOVALZ,,,0,,ZERO_RESULTS,
696,GEOMETRIC_CENTER,"W Via Novamas, Cottonwood, AZ 86326, USA",ChIJn9O47c8aLYcRk4yGYgOALhw,NOVAMAS,34.6867121,-112.0587111,1,86326,OK,route
697,APPROXIMATE,"8000 Novo mesto, Slovenia",ChIJX9Ej41dVZEcR1HshQONVLRA,NOVAMESTO,45.80108240000001,15.1710089,1,8000,OK,"locality,political"
698,ROOFTOP,"Sultan Ahmet Mahallesi, Akbıyık Cd. No:76, 34122 Fatih/İstanbul, Turkey",ChIJeTvjI725yhQRJiLbYt1iH5w,NOVANO,41.0044421,28.9789811,1,34122,OK,"establishment,lodging,point_of_interest"
699,ROOFTOP,"556 Adams St, Milton, MA 02186, USA",ChIJqSFk241844kRQ6tXAqfLwBs,NOVARA,42.2583124,-71.0397778,1,02186,OK,"establishment,food,point_of_interest,restaurant"
700,,,,NOVARSELA,,,0,,ZERO_RESULTS,
701,,,,NOVAS,,,0,,ZERO_RESULTS,
702,,,,NOVASCHA,,,0,,ZERO_RESULTS,
703,,,,NOVASCLA,,,0,,ZERO_RESULTS,
704,APPROXIMATE,"1336 Nova Sela, Slovenia",ChIJXaRa9veMZEcR7VibDEPfYSQ,NOVASELA,45.5056405,14.887785,1,1336,OK,"locality,political"
705,,,,NOVASIOV,,,0,,ZERO_RESULTS,
706,,,,NOVASLE,,,0,,ZERO_RESULTS,
707,APPROXIMATE,"Nova Topola, Bosnia and Herzegovina",ChIJFwAu2uf3XUcRFBpZO353Seo,NOVATOPOLA,45.0520301,17.3081007,1,,OK,"locality,political"
708,GEOMETRIC_CENTER,"Via della Chiesa, 48012 Villanova RA, Italy",ChIJubGN4MIGfkcRAqjicjcR8_I,NOVAVAR,44.4514983,12.0518702,1,48012,OK,"establishment,point_of_interest"
709,APPROXIMATE,"1385 Nova Vas, Slovenia",ChIJkb5-plzQZEcRKQmOcERgGHU,NOVAVAS,45.7727262,14.5064925,10,1385,OK,"locality,political"
710,,,,NOVAVICZ,,,0,,ZERO_RESULTS,
711,,,,NOVAXELO,,,0,,ZERO_RESULTS,
712,APPROXIMATE,"Sur la Font, 24370 Veyrignac, France",ChIJceCCh42lrBIRKcGoSZgahxM,NOVE FONTOK,44.83372199999999,1.3112379,10,24370,OK,"colloquial_area,political"
713,APPROXIMATE,"592 31 Nové Město na Moravě, Czechia",ChIJO5iNIeadDUcRQIwVZg-vAAQ,NOVE MESTO,49.5614432,16.0741877,1,592 31,OK,"locality,political"
714,APPROXIMATE,"Nova Ploščica, Croatia",ChIJfQ3cTWayZ0cRXTwsibKKslI,NOVE PLOSCICE,45.7349109,16.9219361,1,,OK,"locality,political"
715,GEOMETRIC_CENTER,"Dove St, New Orleans, LA 70124, USA",ChIJq0GfCSCvIIYRBSSvd7h43yw,NOVE SOVE,30.0203448,-90.09244969999999,2,70124,OK,route
716,GEOMETRIC_CENTER,"Calle Urbasa, 31621 Sarriguren, Navarra, Spain",ChIJlzO5L2OUUA0RLXY11Pk6gyM,NOVE URBAS,42.81077459999999,-1.5878931,2,31621,OK,route
717,GEOMETRIC_CENTER,"Dove St, New Orleans, LA 70124, USA",ChIJq0GfCSCvIIYRBSSvd7h43yw,NOVE-SOVE,30.0203448,-90.09244969999999,2,70124,OK,route
718,APPROXIMATE,"8000 Novo mesto, Slovenia",ChIJX9Ej41dVZEcR1HshQONVLRA,NOVEN MESTU,45.80108240000001,15.1710089,1,8000,OK,"locality,political"
719,APPROXIMATE,"Novi, MI, USA",ChIJbZmKsj2pJIgR_puLlbjOts8,NOVI,42.48059,-83.4754913,1,,OK,"locality,political"
720,APPROXIMATE,"Futog, Serbia",ChIJZUOYxYUNW0cRo5cqc_WP3RE,NOVI  FUTOG.,45.2419366,19.7159502,1,,OK,"locality,political"
721,APPROXIMATE,"Novi Banovci, Serbia",ChIJ75EpP1JeWkcR914xrxkCWIc,NOVI BANOUCI,44.949859,20.2783228,1,,OK,"locality,political"
722,APPROXIMATE,"Novi Bečej, Serbia",ChIJ80irpp4tW0cREU7Bek9Q-F8,NOVI BECEJ,45.6011009,20.1415393,1,,OK,"locality,political"
723,ROOFTOP,"26850 Providence Pkwy, Novi, MI 48374, USA",ChIJhSM0udioJIgRsNyU5xaEetk,NOVI BECY,42.4866607,-83.5220319,1,48374,OK,"doctor,establishment,health,point_of_interest"
724,GEOMETRIC_CENTER,"Novigasse, 1210 Wien, Austria",ChIJiwPR8x8EbUcRyJaBZ2UpNo8,NOVI BESCI,48.262551,16.4402175,1,1210,OK,route
725,ROOFTOP,"27500 Novi Rd, Novi, MI 48377, USA",ChIJiez2kQWvJIgRCxPHXFCMHMg,NOVI BOEY,42.4921312,-83.4701513,1,48377,OK,"establishment,jewelry_store,point_of_interest,store"
726,APPROXIMATE,"Novi Banovci, Serbia",ChIJ75EpP1JeWkcR914xrxkCWIc,NOVI BONAVICI,44.949859,20.2783228,1,,OK,"locality,political"
727,APPROXIMATE,"Novi Dol, Croatia",ChIJ-6pKkDgPZEcRb_K_GklBrf4,NOVI DOL,45.2412336,15.4827513,1,,OK,"locality,political"
728,,,,NOVI FATOK,,,0,,ZERO_RESULTS,
729,APPROXIMATE,"Futog, Serbia",ChIJZUOYxYUNW0cRo5cqc_WP3RE,NOVI FUBOG,45.2419366,19.7159502,1,,OK,"locality,political"
730,,,,NOVI FUDERG,,,0,,ZERO_RESULTS,
731,,,,NOVI FUHRK,,,0,,ZERO_RESULTS,
732,APPROXIMATE,"Futog, Serbia",ChIJZUOYxYUNW0cRo5cqc_WP3RE,NOVI FULOG,45.2419366,19.7159502,1,,OK,"locality,political"
733,APPROXIMATE,"Futog, Serbia",ChIJZUOYxYUNW0cRo5cqc_WP3RE,NOVI FUTAK,45.2419366,19.7159502,1,,OK,"locality,political"
734,APPROXIMATE,"Futog, Serbia",ChIJZUOYxYUNW0cRo5cqc_WP3RE,NOVI FUTOG,45.2419366,19.7159502,1,,OK,"locality,political"
735,APPROXIMATE,"Futog, Serbia",ChIJZUOYxYUNW0cRo5cqc_WP3RE,NOVI FUTOG.,45.2419366,19.7159502,1,,OK,"locality,political"
736,,,,NOVI FUTOK,,,0,,ZERO_RESULTS,
737,APPROXIMATE,"Novi Grabovac, Croatia",ChIJ__K1kPENZ0cRouX0Ju-Al5I,NOVI GRABOVAC,45.40409349999999,16.9935327,1,,OK,"locality,political"
738,,,,NOVI KNEZEVA,,,0,,ZERO_RESULTS,
739,APPROXIMATE,"42220, Novi Marof, Croatia",ChIJ2b9Z0SAEZkcR6ZKe7PSmu9w,NOVI MAROF,46.1669272,16.3353346,1,42220,OK,"locality,political"
740,APPROXIMATE,"42220, Novi Marof, Croatia",ChIJ2b9Z0SAEZkcR6ZKe7PSmu9w,NOVI MAROT,46.1669272,16.3353346,1,42220,OK,"locality,political"
741,APPROXIMATE,"42220, Novi Marof, Croatia",ChIJ2b9Z0SAEZkcR6ZKe7PSmu9w,NOVI MOROF,46.1669272,16.3353346,1,42220,OK,"locality,political"
742,APPROXIMATE,"Novi Pazar, Serbia",ChIJRatu5j0oVkcR2GwZNj9ipy4,NOVI PAZAR,43.1406976,20.5213617,1,,OK,"locality,political"
743,ROOFTOP,"Štěpánská 61, 110 00 Praha 1-Nové Město, Czechia",ChIJG3Qbau2UC0cR4tYwoeoJCTM,NOVI SAAL,50.08090199999999,14.4263121,1,110 00,OK,"establishment,point_of_interest"
744,APPROXIMATE,"Novi Sad, Serbia",ChIJVTTpPWEQW0cRKP4kN2h9bws,NOVI SAD,45.2671352,19.8335496,1,,OK,"locality,political"
745,,,,NOVI SELIM,,,0,,ZERO_RESULTS,
746,,,,NOVI SELIN,,,0,,ZERO_RESULTS,
747,,,,NOVI SELLE,,,0,,ZERO_RESULTS,
748,,,,NOVI SIVAC,,,0,,ZERO_RESULTS,
749,,,,NOVI ST IVON,,,0,,ZERO_RESULTS,
750,,,,NOVI TAD,,,0,,ZERO_RESULTS,
751,,,,NOVI TULOG,,,0,,ZERO_RESULTS,
752,,,,NOVI URBAS,,,0,,ZERO_RESULTS,
753,GEOMETRIC_CENTER,"Nová, 330 03 Chrást, Czechia",ChIJ1f18Ua7wCkcR16L5l2PYOBg,NOVI VBRAS.,49.8005037,13.4913041,1,330 03,OK,route
754,,,,NOVI VERBESZ,,,0,,ZERO_RESULTS,
755,,,,NOVI VIBAS,,,0,,ZERO_RESULTS,
756,APPROXIMATE,"Novi Vinodolski, Croatia",ChIJe-tjt2R4Y0cRDQwydzvoBPQ,NOVI VINODOL,45.12852549999999,14.7897992,1,,OK,"locality,political"
757,GEOMETRIC_CENTER,"Novi šor, Kucura, Serbia",ChIJ27dRXkNbW0cRbC1VXwJvVR8,NOVI VRBAS,45.5212466,19.5867581,1,,OK,route
758,GEOMETRIC_CENTER,"Novi šor, Kucura, Serbia",ChIJ27dRXkNbW0cRbC1VXwJvVR8,NOVI VRBAS.,45.5212466,19.5867581,1,,OK,route
759,GEOMETRIC_CENTER,"Novi šor, Kucura, Serbia",ChIJ27dRXkNbW0cRbC1VXwJvVR8,NOVI YRBAS,45.5212466,19.5867581,1,,OK,route
760,APPROXIMATE,"Novi Sad, Serbia",ChIJVTTpPWEQW0cRKP4kN2h9bws,NOVI-SAD,45.2671352,19.8335496,1,,OK,"locality,political"
761,GEOMETRIC_CENTER,"Novi šor, Kucura, Serbia",ChIJ27dRXkNbW0cRbC1VXwJvVR8,NOVI. VRBAS,45.5212466,19.5867581,1,,OK,route
762,APPROXIMATE,"Novi Pazar, Serbia",ChIJRatu5j0oVkcR2GwZNj9ipy4,NOVIBAZAR,43.1406976,20.5213617,1,,OK,"locality,political"
763,,,,NOVIBREG,,,0,,ZERO_RESULTS,
764,ROOFTOP,"1661 Soquel Ave Ste D, Santa Cruz, CA 95065, USA",ChIJHQ_CUPs_joARdkFxVtl2QUA,NOVIC,36.9895044,-121.9821012,1,95065,OK,"doctor,establishment,health,point_of_interest"
765,,,,NOVICOTH SLOVENIA,,,0,,ZERO_RESULTS,
766,GEOMETRIC_CENTER,"24°48'30. 46°42'59.5""E, 8, Al Misfat, Riyadh Saudi Arabia",ChIJEdNM9lr8Lj4RJfaxkTVt9hE,NOVIESAT,24.8085556,46.71652779999999,1,,OK,"establishment,point_of_interest"
767,APPROXIMATE,"Novigrad, Croatia",ChIJVVKfLXScfEcRR-2aszqtd_A,NOVIGRAD,45.3156571,13.5619471,1,,OK,"locality,political"
768,ROOFTOP,"50A Berkeley St, Mayfair, London W1J 8HA, UK",ChIJHcKZuSkFdkgRUMmqoeDeSQU,NOVIKOD,51.5076236,-0.1429232,1,W1J 8HA,OK,"bar,establishment,food,night_club,point_of_interest,restaurant"
769,APPROXIMATE,"1319 Novi Kot, Slovenia",ChIJPeeS43PBZEcRENKHKWFYLRA,NOVIKOT,45.6270132,14.605986,1,1319,OK,"locality,political"
770,,,,NOVILAZ,,,0,,ZERO_RESULTS,
771,APPROXIMATE,"Novalja, Croatia",ChIJfwWkTylKYkcRbk0ByIFuna0,NOVILJA,44.5561811,14.8854242,1,,OK,"locality,political"
772,APPROXIMATE,"Novi Sad, Serbia",ChIJVTTpPWEQW0cRKP4kN2h9bws,NOVISAD,45.2671352,19.8335496,1,,OK,"locality,political"
773,APPROXIMATE,"Novi Sad, Serbia",ChIJVTTpPWEQW0cRKP4kN2h9bws,NOVISAD (BACSKA),45.2671352,19.8335496,1,,OK,"locality,political"
774,,,,NOVISAK,,,0,,ZERO_RESULTS,
775,ROOFTOP,"Zaporoska 37B, 53-519 Wrocław, Poland",ChIJxey3bRTCD0cRFissSATikco,NOVISAT,51.0977869,17.013846,1,53-519,OK,"establishment,point_of_interest,store"
776,,,,NOVISATE,,,0,,ZERO_RESULTS,
777,,,,NOVISCHE,,,0,,ZERO_RESULTS,
778,,,,NOVISDAGA,,,0,,ZERO_RESULTS,
779,APPROXIMATE,"3784 Novo Selo, Bulgaria",ChIJgaJ3JduYU0cRSYn5pbbaAGw,NOVISELO,44.1602049,22.7852906,9,3784,OK,"locality,political"
780,,,,NOVISLANKANIEN,,,0,,ZERO_RESULTS,
781,APPROXIMATE,"Novi Sad, Serbia",ChIJVTTpPWEQW0cRKP4kN2h9bws,NOVIZAD,45.2671352,19.8335496,1,,OK,"locality,political"
782,,,,NOVIZAT,,,0,,ZERO_RESULTS,
783,ROOFTOP,"Novo Restaurant & Lounge, The Network Shopping Center,, 726 Higuera St, San Luis Obispo, CA 93401, United States",ChIJBeQgXALx7IAR1h5w6oxNQlE,NOVO,35.2793058,-120.6643124,1,93401,OK,"establishment,food,point_of_interest,restaurant"
784,GEOMETRIC_CENTER,"Urb. Agro Novo, 15280 Brión, A Coruña, Spain",ChIJq2qktqPiLg0Rle7EMFKj0xI,NOVO CALO,42.8518356,-8.6790857,1,15280,OK,route
785,,,,NOVO FUTOG,,,0,,ZERO_RESULTS,
786,,,,NOVO KRACINAH,,,0,,ZERO_RESULTS,
787,APPROXIMATE,"8000 Novo mesto, Slovenia",ChIJX9Ej41dVZEcR1HshQONVLRA,NOVO MESTO,45.80108240000001,15.1710089,1,8000,OK,"locality,political"
788,ROOFTOP,"290 Hudson St, New York, NY 10013, USA",ChIJ47AqOvNZwokR_lLpIH5EaDA,NOVO NESTE,40.7255317,-74.00712879999999,1,10013,OK,"establishment,point_of_interest,school"
789,APPROXIMATE,"8000 Novo mesto, Slovenia",ChIJX9Ej41dVZEcR1HshQONVLRA,NOVO NESTO,45.80108240000001,15.1710089,1,8000,OK,"locality,political"
790,ROOFTOP,"Carrer de París, 7, 43840 Salou, Tarragona, Spain",ChIJOV8YaYBZoRIRF-HoLoitaXk,NOVO SALO,41.0758376,1.1362822,1,43840,OK,"bus_station,establishment,point_of_interest,transit_station"
791,ROOFTOP,"R. José Loureiro, 300 - Loja 01 - Centro, Curitiba - PR, 80010-000, Brazil",ChIJH94vfWzk3JQRIbifClmu6Po,NOVO SEBO,-25.43264,-49.2695349,1,80010-000,OK,"book_store,establishment,home_goods_store,point_of_interest,store"
792,APPROXIMATE,"3784 Novo Selo, Bulgaria",ChIJgaJ3JduYU0cRSYn5pbbaAGw,NOVO SELO,44.1602049,22.7852906,9,3784,OK,"locality,political"
793,GEOMETRIC_CENTER,"Vrbaska, Niš, Serbia",ChIJ2XVKyaywVUcRFWhFHy2k0NI,NOVO VRBAS,43.3142903,21.8847523,1,,OK,route
794,,,,NOVO YJSMA,,,0,,ZERO_RESULTS,
795,APPROXIMATE,"3784 Novo Selo, Bulgaria",ChIJgaJ3JduYU0cRSYn5pbbaAGw,NOVO-SELO,44.1602049,22.7852906,9,3784,OK,"locality,political"
796,ROOFTOP,"R. Dr. José Bonifácio Malburg, 520 - Centro, Itajaí - SC, 88301-350, Brazil",ChIJWZ5WinLM2JQRd5UK8b_7EnI,NOVO-SUL,-26.9063136,-48.6613112,2,88301-350,OK,"establishment,point_of_interest"
797,APPROXIMATE,Novo Brdo,ChIJ05qHHfyUVBMRQz4nDkq3LC4,NOVOBRDO,42.6088372,21.440567,1,,OK,"locality,political"
798,,,,NOVOCELO,,,0,,ZERO_RESULTS,
799,,,,NOVOE SODA,,,0,,ZERO_RESULTS,
800,APPROXIMATE,"Novohrad-Volyns'kyi, Zhytomyrs'ka oblast, Ukraine, 11700",ChIJa6TzhfiwLkcRDqrn279K29Q,NOVOGRADE,50.58602029999999,27.6363775,1,11700,OK,"locality,political"
801,APPROXIMATE,"35400, Nova Gradiška, Croatia",ChIJdbWN_p5hZ0cRUMYrhlCtAAQ,NOVOGRADISKA,45.2581558,17.3839626,1,35400,OK,"locality,political"
802,,,,NOVOGSELA,,,0,,ZERO_RESULTS,
803,ROOFTOP,"Żabikowska 7/9, 62-052 Komorniki, Poland",ChIJ9zq4bZVPBEcR7f3yNrGe8IQ,NOVOL,52.33816299999999,16.8263269,1,62-052,OK,"car_repair,establishment,point_of_interest"
804,APPROXIMATE,"Novalja, Croatia",ChIJfwWkTylKYkcRbk0ByIFuna0,NOVOLJA,44.5561811,14.8854242,1,,OK,"locality,political"
805,,,,NOVOM KENZC.,,,0,,ZERO_RESULTS,
806,APPROXIMATE,"8000 Novo mesto, Slovenia",ChIJX9Ej41dVZEcR1HshQONVLRA,NOVOMESTO,45.80108240000001,15.1710089,1,8000,OK,"locality,political"
807,APPROXIMATE,"Novomyrhorod, Kirovohrads'ka oblast, Ukraine",ChIJ34wsDLil0UARXBfHzBKi4ic,NOVOMIRGOROD,48.7907203,31.6582633,1,,OK,"locality,political"
808,,,,NOVONATO,,,0,,ZERO_RESULTS,
809,,,,NOVOSEBE,,,0,,ZERO_RESULTS,
810,,,,NOVOSEH,,,0,,ZERO_RESULTS,
811,APPROXIMATE,"Novoselë, Albania",ChIJa8TJtVlJRRMRJmYQG2_wP8M,NOVOSELA,40.6230031,19.4690444,1,,OK,"locality,political"
812,,,,NOVOSELCCI,,,0,,ZERO_RESULTS,
813,APPROXIMATE,"Novoselci, Bosnia and Herzegovina",ChIJxUPtW6k7Z0cRqLqANPZ1geE,NOVOSELCI,45.1589849,16.7846703,1,,OK,"locality,political"
814,APPROXIMATE,"3784 Novo Selo, Bulgaria",ChIJgaJ3JduYU0cRSYn5pbbaAGw,NOVOSELO,44.1602049,22.7852906,9,3784,OK,"locality,political"
815,,,,NOVOSELO DALMAZIA,,,0,,ZERO_RESULTS,
816,,,,NOVOSKA,,,0,,ZERO_RESULTS,
817,ROOFTOP,"R. Coriolano, 380 - Água Branca, São Paulo - SP, 05047-000, Brazil",ChIJ6TtmIwv4zpQRYS3yRN9DTN4,NOVOSOLO,-23.5258312,-46.689512,1,05047-000,OK,"establishment,general_contractor,point_of_interest"
818,APPROXIMATE,"Nova Topola, Bosnia and Herzegovina",ChIJFwAu2uf3XUcRFBpZO353Seo,NOVOTOPOLA,45.0520301,17.3081007,1,,OK,"locality,political"
819,ROOFTOP,"Gatower Str. 124, 13595 Berlin, Germany",ChIJi_olzsZXqEcRj7DLQ19sULA,NOVOXELE,52.5096417,13.180181,1,13595,OK,"establishment,health,point_of_interest"
820,,,,NOVSHA,,,0,,ZERO_RESULTS,
821,APPROXIMATE,"44330, Novska, Croatia",ChIJg6ur_5QTZ0cRYYTuyYfeoLo,NOVSKA,45.33999,16.9785966,1,44330,OK,"locality,political"
822,APPROXIMATE,"Sigetac Novski, 44330, Sigetac, Croatia",ChIJ30uV9MEQZ0cRkpUianmGD2M,NOVSKI,45.351571,16.874046,1,44330,OK,"neighborhood,political"
823,,,,NOW FUTOG,,,0,,ZERO_RESULTS,
824,APPROXIMATE,"86-170 Nowe, Poland",ChIJ9yvaEWnHAkcRmfqB2FnVVbk,NOWE,53.64903,18.7271078,1,86-170,OK,"locality,political"
825,ROOFTOP,"Opp PVR Plaza, K-25, Radial Road Number 4, Block K, Connaught Place, New Delhi, Delhi 110001, India",ChIJffVrJzj9DDkRD1OECUVM_R4,NOWE HOBY,28.6352842,77.220217,1,110001,OK,"establishment,point_of_interest,store"
826,APPROXIMATE,"Veliky Novgorod, Novgorod Oblast, Russia",ChIJmXSFHazrvkYRXtoeLEr8GJ4,NOWGROD,58.52556980000001,31.2741929,1,,OK,"locality,political"
827,APPROXIMATE,"Novi Sad, Serbia",ChIJVTTpPWEQW0cRKP4kN2h9bws,NOWISAD,45.2671352,19.8335496,1,,OK,"locality,political"
828,,,,NOWNO,,,0,,ZERO_RESULTS,
829,APPROXIMATE,"3784 Novo Selo, Bulgaria",ChIJgaJ3JduYU0cRSYn5pbbaAGw,NOWOSELO,44.1602049,22.7852906,9,3784,OK,"locality,political"
830,APPROXIMATE,"16-040 Nowosiółki, Poland",ChIJ6e9N8tD430YR2I3_cYiukpY,NOWOSIOLKI,53.1746107,23.5233834,8,16-040,OK,"locality,political"
831,APPROXIMATE,"99-340 Wola Nowska, Poland",ChIJTTzlqSGeG0cROFF84a7MyoY,NOWSKA,52.2258161,19.187673,1,99-340,OK,"locality,political"
832,APPROXIMATE,"Novyy, Udmurt Republic, Russia, 427413",ChIJ6cjbi8TV5kMRALypxn1qWLY,NOWY,56.813889,54.0333329,2,427413,OK,"locality,political"
833,,,,NOWY VRBAS,,,0,,ZERO_RESULTS,
834,ROOFTOP,"Church House, Church Lane, Barnstaple EX31 1DE, UK",ChIJX5P1TZA6bEgRz7GEiB5TwTI,NPANS,51.0802838,-4.0589322,1,EX31 1DE,OK,"establishment,home_goods_store,point_of_interest,store"
835,,,,NRAVIACO,,,0,,ZERO_RESULTS,
836,,,,NROSVAKI,,,0,,ZERO_RESULTS,
837,ROOFTOP,"43 Church St #503, St. Catharines, ON L2R 5P6, Canada",ChIJky72fbJR04kRL9AUWHMfijM,NRSAC,43.159361,-79.2481639,1,L2R 5P6,OK,"establishment,health,point_of_interest"
838,,,,NUALJA,,,0,,ZERO_RESULTS,
839,ROOFTOP,"207 W Hastings St, Vancouver, BC V6B 1K6, Canada",ChIJ9aoKpHlxhlQRAH-J_yYq6Oc,NUBA,49.2827427,-123.109641,1,V6B 1K6,OK,"bar,establishment,food,point_of_interest,restaurant"
840,ROOFTOP,"Music, Workman Mill Rd, Whittier, CA 90601, USA",ChIJsdi-kTjRwoAR2am16AXUUGw,NUESIC,34.0182694,-118.0340812,6,90601,OK,premise
841,APPROXIMATE,"New York, NY, USA",ChIJOwg_06VPwokRYv534QaPC8g,NUEVA YORK,40.7127753,-74.0059728,1,,OK,"locality,political"
842,,,,NUKODER,,,0,,ZERO_RESULTS,
843,APPROXIMATE,"Vukovar, Croatia",ChIJa3pHLpqPXEcRq8_o1zxj3rY,NUKOVAR,45.3452377,19.0010204,1,,OK,"locality,political"
844,,,,NUNCIERO,,,0,,ZERO_RESULTS,
845,,,,NUNKOVA,,,0,,ZERO_RESULTS,
846,,,,NURAF,,,0,,ZERO_RESULTS,
847,,,,NUSIR,,,0,,ZERO_RESULTS,
848,,,,NUSKAGRAVA,,,0,,ZERO_RESULTS,
849,APPROXIMATE,"9262 Nuskova, Slovenia",ChIJYxlIhEMab0cRk3nKYEnbfrE,NUSKOVA,46.8112097,16.0288196,1,9262,OK,"locality,political"
850,GEOMETRIC_CENTER,"N Ridge Rd, Wichita, KS 67205, USA",ChIJwYc73-Ifu4cRiuiNWVzWDhA,NUSTAR,37.7471333,-97.4262426,1,67205,OK,"establishment,point_of_interest"
851,APPROXIMATE,"Nova Bukovica, Croatia",ChIJmdOEr19hXUcR9cumXpzTWW8,NVA BUKOVICA,45.6614966,17.7716714,1,,OK,"locality,political"
852,,,,NZDOLJE,,,0,,ZERO_RESULTS,
853,APPROXIMATE,"Panevėžys, Lithuania",ChIJT7EPU4sx5kYRgNrpcIzRAAQ,OANEVEZYS,55.7347915,24.3574774,1,,OK,"locality,political"
854,,,,OASIEK,,,0,,ZERO_RESULTS,
855,APPROXIMATE,"029 57 Oravská Lesná, Slovakia",ChIJJ6jou-BKFEcRkAqXxtH3AAQ,OAVSKA,49.3688894,19.1853401,1,029 57,OK,"locality,political"
856,APPROXIMATE,"Municipality of Pesnica, Slovenia",ChIJC-7XXER0b0cRh_aOxufVgX8,OBCNIA DUPASNICA,46.6088755,15.6757051,1,,OK,"administrative_area_level_2,political"
857,APPROXIMATE,"Beba Veche 307035, Romania",ChIJmQFaztjyREcRWiOVyRJGW9g,OBEBA,46.1320202,20.2992527,1,307035,OK,"locality,political"
858,APPROXIMATE,"Oberdorf, Switzerland",ChIJiwgrhuXMkUcRsGl7_6wLJeg,OBERDORF,47.3936614,7.749282599999999,1,,OK,"locality,political"
859,APPROXIMATE,"Oberriexingen, Germany",ChIJWXGCHgF-l0cRcC8JjTz9HwQ,OBERIXINGEE,48.9284901,9.0238719,1,,OK,"locality,political"
860,,,,OBERUFER,,,0,,ZERO_RESULTS,
861,APPROXIMATE,"4104 Oberwil, Switzerland",ChIJrWxJ8p64kUcReGFF_5M4_fU,OBERWIL,47.5159745,7.558200299999999,1,4104,OK,"locality,political"
862,,,,OBGE,,,0,,ZERO_RESULTS,
863,,,,OBIJEK,,,0,,ZERO_RESULTS,
864,APPROXIMATE,"Obilićevo, Banja Luka 78000, Bosnia and Herzegovina",ChIJC4KFYTwDXkcR77OhUu6JAZo,OBILICEOV,44.7591962,17.190859,1,78000,OK,"political,sublocality,sublocality_level_1"
865,APPROXIMATE,"Obilićevo, Banja Luka 78000, Bosnia and Herzegovina",ChIJC4KFYTwDXkcR77OhUu6JAZo,OBILICEVO,44.7591962,17.190859,1,78000,OK,"political,sublocality,sublocality_level_1"
866,,,,OBILICHIRO,,,0,,ZERO_RESULTS,
867,APPROXIMATE,"Obljaj, Bosansko Grahovo, Bosnia and Herzegovina",ChIJ71GwxS9qYEcRoJMG3SLxwrg,OBLJAJA,44.1771933,16.3925237,1,,OK,"political,sublocality,sublocality_level_1"
868,APPROXIMATE,"Obod, Kursk Oblast, Russia, 307452",ChIJY78lECBAKUEREpzxuxRfs1Q,OBOD,51.2584739,34.6067126,1,307452,OK,"locality,political"
869,GEOMETRIC_CENTER,"Obrada Mijatova, Stajićevo 23204, Serbia",ChIJb6UtoDvCWkcRJfF1vJ093Po,OBRADAE,45.2980688,20.453427,8,23204,OK,route
870,,,,OBRANKOVCI,,,0,,ZERO_RESULTS,
871,APPROXIMATE,"Obrankovec, Croatia",ChIJx_B_LtymaEcRuSLL3rn-g94,OBRANKOVEC,46.2752145,16.6069276,1,,OK,"locality,political"
872,APPROXIMATE,"23450, Obrovac, Croatia",ChIJW_19aGjHYUcRvbL-fniFKIU,OBRAVAC,44.2007328,15.6811168,1,23450,OK,"locality,political"
873,,,,OBRAVAC (SPLIT),,,0,,ZERO_RESULTS,
874,APPROXIMATE,"Obrenovac, Serbia",ChIJ4dNRPZUWWkcRYP3z3tTg5ec,OBRENOVAC,44.596795,20.1242053,1,,OK,"administrative_area_level_3,political"
875,APPROXIMATE,"Obrenovac, Serbia",ChIJ4dNRPZUWWkcRYP3z3tTg5ec,OBRENOVAI,44.596795,20.1242053,1,,OK,"administrative_area_level_3,political"
876,APPROXIMATE,"Les Obres, 15300 Laveissière, France",ChIJezQcIPrn90cROSdHZrR3Eho,OBRES,45.107379,2.786635,1,15300,OK,"colloquial_area,political"
877,APPROXIMATE,"Obrez, Voronezh Oblast, Russia, 396375",ChIJyz4FajD0JEERbMSRN1Q2OjA,OBREZ,51.0656727,38.5291676,1,396375,OK,"locality,political"
878,APPROXIMATE,"8261 Obrežje, Slovenia",ChIJaUfwXwTJZUcRp0FYxZWLSWw,OBREZJE,45.8513366,15.6873744,1,8261,OK,"locality,political"
879,,,,OBRIEZ-DORY,,,0,,ZERO_RESULTS,
880,GEOMETRIC_CENTER,"Obrije, 1000 Ljubljana, Slovenia",ChIJb9U-AFAyZUcRBGs_2jjkq2k,OBRIJE,46.0764605,14.5493484,1,1000,OK,route
881,,,,OBROSVECK,,,0,,ZERO_RESULTS,
882,APPROXIMATE,"23450, Obrovac, Croatia",ChIJW_19aGjHYUcRvbL-fniFKIU,OBROVAC,44.2007328,15.6811168,1,23450,OK,"locality,political"
883,APPROXIMATE,"23450, Obrovac, Croatia",ChIJW_19aGjHYUcRvbL-fniFKIU,OBROVAZZO,44.2007328,15.6811168,1,23450,OK,"locality,political"
884,APPROXIMATE,"Obrovnica, Croatia",ChIJqRuc7BhLZkcRB3QVptY0Rko,OBROVNICA,45.8294814,16.8745259,1,,OK,"locality,political"
885,APPROXIMATE,"Obraje, 20230 Aguascalientes, Ags., Mexico",ChIJFSpwXn7uKYQRM-Bs2nZCG3M,OBRSJE,21.8738549,-102.2970024,1,20230,OK,"political,sublocality,sublocality_level_1"
886,APPROXIMATE,"Reka Obsha, Tver Oblast, Russia",ChIJDWzTjLPuyEYRiSYKtDxaFqM,OBSCHA,55.8843746,33.0063575,1,,OK,"establishment,natural_feature"
887,ROOFTOP,"Chemin des Aulx 12, 1228 Plan-les-Ouates, Switzerland",ChIJdcRQn3F7jEcRHLkb6JjoOo0,OBSEVK,46.168821,6.104189,1,1228,OK,"establishment,point_of_interest"
888,ROOFTOP,"173 W Lorain St, Oberlin, OH 44074, USA",ChIJ5fKhn34KOogRZuYN4JEy-to,OBULIN,41.29348299999999,-82.2236001,1,44074,OK,"establishment,point_of_interest,university"
889,,,,OBULJANO,,,0,,ZERO_RESULTS,
890,,,,OBULJINO,,,0,,ZERO_RESULTS,
891,GEOMETRIC_CENTER,"Farnham GU9 0GJ, UK",ChIJnw8sZwItdEgRuKA4nqhR3To,OBVASE,51.2145699,-0.8016781,1,GU9 0GJ,OK,"establishment,point_of_interest"
892,GEOMETRIC_CENTER,"Jana Očka, 258 01 Vlašim, Czechia",ChIJryg5aC-IDEcRQ2GnuHo-v3s,OCEK,49.7101011,14.8908192,1,258 01,OK,route
893,ROOFTOP,"13631 Beach Blvd, Westminster, CA 92683, USA",ChIJL_I0mp4o3YARi-TtxHLUjGk,OCHAUS,33.7643497,-117.9903356,1,92683,OK,"car_dealer,establishment,point_of_interest,store"
894,APPROXIMATE,"Ohrid, Macedonia (FYROM)",ChIJV2bqh2XbUBMR08kLOWX8bMQ,OCHRID,41.1230977,20.8016481,1,,OK,"locality,political"
895,APPROXIMATE,"Ohrid, Macedonia (FYROM)",ChIJV2bqh2XbUBMR08kLOWX8bMQ,OCHRIDE,41.1230977,20.8016481,1,,OK,"locality,political"
896,,,,OCINJA,,,0,,ZERO_RESULTS,
897,,,,OCKENING,,,0,,ZERO_RESULTS,
898,,,,OCRISI,,,0,,ZERO_RESULTS,
899,,,,OCRIT,,,0,,ZERO_RESULTS,
900,,,,OCRUM,,,0,,ZERO_RESULTS,
901,APPROXIMATE,"Oktisi, Macedonia (FYROM)",ChIJhe4tOObjUBMRyvDeovyehPw,OCTISI,41.2301973,20.6094429,1,,OK,"locality,political"
902,,,,OCUKOVCI,,,0,,ZERO_RESULTS,
903,GEOMETRIC_CENTER,"Mangalabag, Cuttack, Odisha 753001, India",ChIJD6wew4ENGToRLV_gsUR-wCo,ODAISSI,20.4688738,85.8888173,1,753001,OK,"clothing_store,establishment,point_of_interest,store"
904,GEOMETRIC_CENTER,"R. Odália Ferraz, Ichu - BA, 48725-000, Brazil",ChIJ3ya0C5CHEwcRSNjx31Rpf-w,ODALIA,-11.7494969,-39.1918809,2,48725-000,OK,route
905,GEOMETRIC_CENTER,"Odana Rd, Madison, WI, USA",ChIJyzniDdStB4gRsGXahaLRZ5w,ODANA,43.0500738,-89.4705018,1,,OK,route
906,,,,ODEILGE STONE,,,0,,ZERO_RESULTS,
907,,,,ODEITE,,,0,,ZERO_RESULTS,
908,,,,ODEMA,,,0,,ZERO_RESULTS,
909,APPROXIMATE,"Sopron, Hungary",ChIJDRZIUGA7bEcRoBIeDCnEAAQ,ODEMBURG,47.68166189999999,16.5844795,1,,OK,"locality,political"
910,APPROXIMATE,"Ödemiş, İzmir, Turkey",ChIJtdtSnx7juBQRPipZIdOwH5E,ODEMIS,38.228296,27.974842,1,,OK,"locality,political"
911,,,,ODEMISSION,,,0,,ZERO_RESULTS,
912,,,,ODENCI,,,0,,ZERO_RESULTS,
913,ROOFTOP,"579 Warren Ave, East Providence, RI 02914, USA",ChIJW1cKfcBa5IkRJmmMfzLBffE,ODENIS,41.81162,-71.3615749,1,02914,OK,"establishment,food,point_of_interest,restaurant"
914,,,,ODENISSE,,,0,,ZERO_RESULTS,
915,,,,ODERONICK,,,0,,ZERO_RESULTS,
916,APPROXIMATE,"Odesa, Odessa Oblast, Ukraine, 65000",ChIJQ0yGC4oxxkARbBfyjOKPnxI,ODESA,46.482526,30.7233095,1,65000,OK,"locality,political"
917,GEOMETRIC_CENTER,"Beech Ln, Wilmslow SK9 5ER, UK",ChIJszQV2sBmekgRfARRQMFLffo,ODESMA,53.3250036,-2.2397733,1,SK9 5ER,OK,"establishment,point_of_interest"
918,APPROXIMATE,"Odesa, Odessa Oblast, Ukraine, 65000",ChIJQ0yGC4oxxkARbBfyjOKPnxI,ODESSA,46.482526,30.7233095,1,65000,OK,"locality,political"
919,APPROXIMATE,"Odeya, Nigeria",ChIJLbd0r8O6RxARRr0roEOT0Ds,ODEYA,7.250000000000001,5.533333,1,,OK,"colloquial_area,political"
920,APPROXIMATE,"Ödemiş, İzmir, Turkey",ChIJtdtSnx7juBQRPipZIdOwH5E,ODIMIS,38.228296,27.974842,1,,OK,"locality,political"
921,APPROXIMATE,"Odin, IL 62870, USA",ChIJXfZpu1CgdogRvopqh6VoY94,ODINJ,38.617271,-89.0522867,2,62870,OK,"locality,political"
922,APPROXIMATE,"Odžaci, Serbia",ChIJSQvU-Y-hXEcRpDNwjl5WNSs,ODJACI,45.5146587,19.2762516,1,,OK,"locality,political"
923,,,,ODJIREC,,,0,,ZERO_RESULTS,
924,,,,ODKOPI,,,0,,ZERO_RESULTS,
925,ROOFTOP,"1500 Tysons McLean Dr, McLean, VA 22102, USA",ChIJ49YokLBKtokRXnbEka6Aapw,ODNI,38.9328392,-77.2054965,2,22102,OK,"establishment,point_of_interest"
926,,,,ODNIJANEC,,,0,,ZERO_RESULTS,
927,,,,ODONIS,,,0,,ZERO_RESULTS,
928,APPROXIMATE,"Odoroki, Shirako, Chosei District, Chiba Prefecture 299-4214, Japan",ChIJM0NhPbTHImARgqAn2Lk0C-0,ODOROCI,35.4347302,140.3964174,1,299-4214,OK,"political,sublocality,sublocality_level_2"
929,APPROXIMATE,"Odra, LA 71416, USA",ChIJPQJknop1MIYR_qlV0KwVmsM,ODRA,31.5971143,-92.83626579999999,2,71416,OK,"locality,political"
930,APPROXIMATE,"9233 Odranci, Slovenia",ChIJMdU6owhIb0cR4O8_ghz4AAQ,ODRANCI,46.5847279,16.276235,1,9233,OK,"locality,political"
931,APPROXIMATE,"Odri, Macedonia (FYROM)",ChIJ61idMKaKUxMRTIBEDqVYRLs,ODRI,42.1253283,21.0892601,2,,OK,"locality,political"
932,APPROXIMATE,"Edirne, Edirne Merkez/Edirne, Turkey",ChIJ4QRjoncvsxQRvDAcQ8rAz6A,ODRIN,41.67712969999999,26.5557145,1,,OK,"locality,political"
933,,,,ODSADZ,,,0,,ZERO_RESULTS,
934,APPROXIMATE,"Oduna, Nigeria",ChIJmwAABerNQBAR1734g5RH2QA,ODUNA,6.2985418,5.545978700000001,1,,OK,"administrative_area_level_3,political"
935,APPROXIMATE,"Odžaci, Serbia",ChIJSQvU-Y-hXEcRpDNwjl5WNSs,ODZACI,45.5146587,19.2762516,1,,OK,"locality,political"
936,APPROXIMATE,"Odžaci, Serbia",ChIJSQvU-Y-hXEcRpDNwjl5WNSs,ODZASI,45.5146587,19.2762516,1,,OK,"locality,political"
937,,,,ODZSACZ,,,0,,ZERO_RESULTS,
938,APPROXIMATE,"Piazzolla NA, Italy",ChIJwRM-J66xOxMRHqgAB1UuQZ4,OERSZOLLOA,40.8851342,14.5116014,1,,OK,"locality,political"
939,,,,OERSZOLLOS,,,0,,ZERO_RESULTS,
940,ROOFTOP,"501 Virginia Beach Blvd A, Virginia Beach, VA 23451, USA",ChIJqbPUGZ3puokRvE-n6L9CUxI,OESTEREC,36.8442134,-75.9795326,1,23451,OK,"bar,establishment,food,point_of_interest,restaurant"
941,,,,OFANE,,,0,,ZERO_RESULTS,
942,,,,OFIJIEK,,,0,,ZERO_RESULTS,
943,GEOMETRIC_CENTER,"R. Ofion - Vila Guilherme, São Paulo - SP, Brazil",ChIJaRJCjbpYzpQRt4xRFX-jP9g,OFION,-23.5109508,-46.60411630000001,1,02065,OK,route
944,,,,OFRAN KARA,,,0,,ZERO_RESULTS,
945,,,,OGOLIN,,,0,,ZERO_RESULTS,
946,APPROXIMATE,"Donje Ogorje, Croatia",ChIJ7bskMYtUNRMRKBUqnGrYJGU,OGORJE,43.7456293,16.4375404,1,,OK,"locality,political"
947,APPROXIMATE,"Veliki Ograđenik, Bosnia and Herzegovina",ChIJl_SpkqQUSxMRY750O5gJOhI,OGRADJENIK,43.2678938,17.6643848,1,,OK,"locality,political"
948,,,,OGRIWNISCE,,,0,,ZERO_RESULTS,
949,APPROXIMATE,"Grižane-Belgrad, Croatia",ChIJPeYR_JR9Y0cRpKYiNTzwN9c,OGRIZANE,45.2026088,14.7184124,1,,OK,"locality,political"
950,APPROXIMATE,"District of Columbia, USA",ChIJW-T2Wt7Gt4kRmKFUAsCO4tY,OGRUG,38.9059849,-77.03341790000002,1,,OK,"administrative_area_level_1,political"
951,,,,OGULIE,,,0,,ZERO_RESULTS,
952,APPROXIMATE,"Ogulin, Croatia",ChIJt8zFWIpzZEcRUiDvJGL6Y3Y,OGULIN,45.265949,15.2238814,1,,OK,"locality,political"
953,APPROXIMATE,"Ogulin, Croatia",ChIJt8zFWIpzZEcRUiDvJGL6Y3Y,OGULIN/CROATIA,45.265949,15.2238814,1,,OK,"locality,political"
954,APPROXIMATE,"Ogulin, Croatia",ChIJt8zFWIpzZEcRUiDvJGL6Y3Y,OGULLIN,45.265949,15.2238814,1,,OK,"locality,political"
955,APPROXIMATE,"Ogulin, Croatia",ChIJt8zFWIpzZEcRUiDvJGL6Y3Y,OGULNI,45.265949,15.2238814,1,,OK,"locality,political"
956,APPROXIMATE,"Ohaze Ume Oaza Shigeoka, Saiki, Ōita Prefecture 879-3204, Japan",ChIJhUij6NXnRjURlkVWvvtnq0A,OHAZZE,32.82286029999999,131.6367643,1,879-3204,OK,"political,sublocality,sublocality_level_3"
957,ROOFTOP,"6801 Hollywood Blvd #433, Los Angeles, CA 90028, USA",ChIJWdFs1SO_woAR5u_rQt1vZRI,OHMS,34.10191770000001,-118.3391772,1,90028,OK,"bar,establishment,night_club,point_of_interest"
958,,,,OHNAH,,,0,,ZERO_RESULTS,
959,ROOFTOP,"33101 E Quincy Ave, Watkins, CO 80137, USA",ChIJ_S93Q2j0bIcR6RnZtw59yyc,OHRICA,39.6429975,-104.5980688,1,80137,OK,"establishment,point_of_interest"
960,APPROXIMATE,"Ohrid, Macedonia (FYROM)",ChIJV2bqh2XbUBMR08kLOWX8bMQ,OHRID,41.1230977,20.8016481,1,,OK,"locality,political"
961,APPROXIMATE,"Ohrid, Macedonia (FYROM)",ChIJV2bqh2XbUBMR08kLOWX8bMQ,OHRIDE,41.1230977,20.8016481,1,,OK,"locality,political"
962,APPROXIMATE,"Ohrid, Macedonia (FYROM)",ChIJV2bqh2XbUBMR08kLOWX8bMQ,OHRIDR,41.1230977,20.8016481,1,,OK,"locality,political"
963,,,,OHRUG,,,0,,ZERO_RESULTS,
964,ROOFTOP,"3 Chome-11-11-1 Nishikiorikita, Tondabayashi-shi, Ōsaka-fu 584-8540, Japan",ChIJJW6oIG3WAGARZme_u5DQnBc,OHTIMI,34.482164,135.58106,2,584-8540,OK,"establishment,point_of_interest,university"
965,APPROXIMATE,"Oisavanjärvi, 91500 Muhos, Finland",ChIJkwBbu9vCgUYR17S1V-pnsi0,OISAVA,64.8817514,26.1306027,1,91500,OK,"establishment,natural_feature"
966,APPROXIMATE,"Osijek, Croatia",ChIJdYByaajnXEcRlRGkIVZyjFs,OISIJEK,45.5549624,18.6955144,1,,OK,"locality,political"
967,GEOMETRIC_CENTER,"Sunday Oliseh Street, Ojo, Lagos, Nigeria",ChIJY51LBb-BOxARl7MTGDy80FA,OJISEH,6.4582668,3.1198059,1,,OK,route
968,GEOMETRIC_CENTER,"Japan, 〒891-0403 Kagoshima-ken, Ibusuki-shi, Jūnichō, 鹿児島県指宿市十二町小田2555",ChIJRfEvFMsqPDURHLTOyffeX7M,OJRIDA,31.232867,130.636151,1,891-0403,OK,"establishment,laundry,point_of_interest"
969,,,,OKANJNIA,,,0,,ZERO_RESULTS,
970,,,,OKDAYL,,,0,,ZERO_RESULTS,
971,,,,OKENEG,,,0,,ZERO_RESULTS,
972,APPROXIMATE,"Zmajevo, Serbia",ChIJ0TyuinhBW0cRvdp8PSaO810,OKER,45.4562428,19.7167969,1,,OK,"locality,political"
973,,,,OKERNOKABER,,,0,,ZERO_RESULTS,
974,ROOFTOP,"2 Mingyue 1st Rd, Yuexiu Qu, Guangzhou Shi, Guangdong Sheng, China, 510600",ChIJJ7ezKBX_AjQRqdScrT5Tioc,OKING,23.114887,113.313525,1,510600,OK,"establishment,point_of_interest"
975,,,,OKIO,,,0,,ZERO_RESULTS,
